"name","rating","reviews","pageurl","prices_tour","direction","lat","lon","espanol","portugues","ingles","frances","aleman","italiano","chino","holanda","ruso","japones","type_of_things","process_date"
"Cerro San Cristóbal","4,5","17.921 opiniones","https://www.tripadvisor.cl/Attraction_Review-g294305-d314481-Reviews-Cerro_San_Cristobal-Santiago_Santiago_Metropolitan_Region.html","desde $22.144 ,desde $31.769 ,desde $17.690 ,desde $34.657 ","Pio Nono 450, Santiago","-33.430725766679394","-70.63629061587967","7297","9012","2535","143","107","91","68","44","40","24","Naturaleza y parques, Atracciones y lugares de interés, Miradores, Montañas Más","2019-10-12"
"Sky Costanera","4,5","14.589 opiniones","https://www.tripadvisor.cl/Attraction_Review-g294305-d8594663-Reviews-Sky_Costanera-Santiago_Santiago_Metropolitan_Region.html","desde $15.162 ,desde $22.144 ,desde $72.202 ,desde $52.708 ","Avenida Andres Bello 2425, Santiago","-33.416402508734805","-70.6070232183702","6185","7532","1280","58","71","71","74","15","18","8","Atracciones y lugares de interés, Miradores, Torres y observatorios","2019-10-12"
"Cerro Santa Lucía","4,5","19.258 opiniones","https://www.tripadvisor.cl/Attraction_Review-g294305-d314522-Reviews-Cerro_Santa_Lucia-Santiago_Santiago_Metropolitan_Region.html","desde $22.144 ,desde $31.769 ,desde $17.690 ,desde $12.996 ","Rua Santa Lucía, Santiago","-33.44056999999998","-70.64804999999996","6253","12065","1682","106","86","83","42","16","43","35","Naturaleza y parques, Atracciones y lugares de interés, Parques, Monumentos y lugares de interés Más","2019-10-12"
"Casa Museo La Chascona","4,5","9.317 opiniones","https://www.tripadvisor.cl/Attraction_Review-g294305-d314525-Reviews-Casa_Museo_La_Chascona-Santiago_Santiago_Metropolitan_Region.html","desde $10.108 ,desde $22.144 ,desde $29.603 ,desde $24.549 ","Fernando Márquez de la Plata 0192, Santiago","-33.43119579739165","-70.63453850291418","3624","5093","1023","124","31","139","77","8","10","2","Museos, Museos especializados","2019-10-12"
"Barrio Lastarria","4,5","8.038 opiniones","https://www.tripadvisor.cl/Attraction_Review-g294305-d640283-Reviews-Barrio_Lastarria-Santiago_Santiago_Metropolitan_Region.html","desde $36.101 ,desde $22.217 ,desde $54.152 ,desde $28.520 ","José Victorino Lastarria, Santiago","-33.43881339663521","-70.64115089745923","4734","2915","858","41","22","49","4","1","6","5","Atracciones y lugares de interés, Otros, barrios","2019-10-12"
"Parque Bicentenario","4,5","4.218 opiniones","https://www.tripadvisor.cl/Attraction_Review-g294305-d3236426-Reviews-Parque_Bicentenario-Santiago_Santiago_Metropolitan_Region.html","desde $34.657 ,desde $22.144 ,desde $22.217 ,desde $24.549 ","Avenida Del Bicentenario 3800, Santiago","-33.39917042408681","-70.60107427869441","2472","1595","304","13","6","14","NA","3","6","2","Naturaleza y parques, Parques","2019-10-12"
"Parque Araucano","4,5","7.178 opiniones","https://www.tripadvisor.cl/Attraction_Review-g294305-d3836868-Reviews-Parque_Araucano-Santiago_Santiago_Metropolitan_Region.html","desde $4.982 ,desde $22.144 ,desde $21.588 ,desde $15.162 ","Avenida Presidente Riesco 5330, Santiago","-33.40529436565618","-70.57752863434382","3920","3113","355","12","10","16","28","5","5","4","Naturaleza y parques, Parques","2019-10-12"
"Patio Bellavista","4,5","21.631 opiniones","https://www.tripadvisor.cl/Attraction_Review-g294305-d4005186-Reviews-Patio_Bellavista-Santiago_Santiago_Metropolitan_Region.html","desde $22.144 ,desde $71.480 ,desde $198.484 ,desde $101.083 ","Bellavista, Santiago","-33.43259999999998","-70.63319999999999","7257","13680","1366","94","40","83","62","21","13","6","Atracciones y lugares de interés, Monumentos y lugares de interés","2019-10-12"
"Teleférico Santiago","4,5","1.908 opiniones","https://www.tripadvisor.cl/Attraction_Review-g294305-d11859949-Reviews-Teleferico_Santiago-Santiago_Santiago_Metropolitan_Region.html","desde $22.144 ,desde $21.588 ,desde $15.162 ,desde $32.491 ","El Cerro 750, Santiago","-33.41548464228794","-70.61724646415617","759","925","206","19","10","10","NA","2","1","1","Transporte, Tranvías","2019-10-12"
"Cousino Macul","4,5","1.326 opiniones","https://www.tripadvisor.cl/Attraction_Review-g294305-d2212241-Reviews-Vina_Cousino_Macul-Santiago_Santiago_Metropolitan_Region.html","desde $15.884 ,desde $57.690 ,desde $91.458 ,desde $108.303 ","Av. Quilin 7100, Santiago","-33.498625491245875","-70.56241034072302","354","825","209","13","4","4","NA","1","1","1","Comida y bebida, Bodegas y viñedos","2019-10-12"
"Museo Chileno de Arte Precolombino","4,5","4.783 opiniones","https://www.tripadvisor.cl/Attraction_Review-g294305-d1007866-Reviews-Museo_Chileno_de_Arte_Precolombino-Santiago_Santiago_Metropolitan_Region.html","desde $10.108 ,desde $22.144 ,desde $24.549 ,desde $60.650 ","Bandera 361, Santiago","-33.43866039133823","-70.65244623630923","1418","2807","972","90","22","66","16","14","12","7","Museos, Museos de historia, Museos de arte","2019-10-12"
"Museo Interactivo Mirador","4,5","2.128 opiniones","https://www.tripadvisor.cl/Attraction_Review-g294305-d592895-Reviews-Museo_Interactivo_Mirador-Santiago_Santiago_Metropolitan_Region.html","desde $4.513 ,desde $21.588 ,desde $15.162 ,desde $22.144 ","Punta Arenas 6711, Santiago","-53.15665999999993","-70.90793999999994","1140","944","101","4","NA","5","NA","NA","4","1","Museos, Museos especializados","2019-10-12"
"Museo de la Memoria y los Derechos Humanos","4,5","6.074 opiniones","https://www.tripadvisor.cl/Attraction_Review-g294305-d1886318-Reviews-Museo_de_la_Memoria_y_los_Derechos_Humanos-Santiago_Santiago_Metropolitan_Region.html","desde $28.881 ,desde $57.762 ,desde $64.982 ,desde $69.805 ","Matucana 501, Santiago","-33.44037920902763","-70.67984853808078","3069","2433","1455","88","32","55","NA","16","6","3","Museos, Museos especializados, Museos de historia","2019-10-12"
"Templo Bahá'í","4,5","574 opiniones","https://www.tripadvisor.cl/Attraction_Review-g294305-d12000729-Reviews-Templo_Baha_i-Santiago_Santiago_Metropolitan_Region.html","desde $88.087 ,desde $61.372 ,desde $54.152 ","Diagonal Las Torres 2,000 Peñalolen, Santiago","-33.466725","-70.53063524999999","370","153","46","4","2","2","NA","NA","NA","NA","Atracciones y lugares de interés, Lugares religiosos y sagrados","2019-10-12"
"Catedral Metropolitana","4,5","10.197 opiniones","https://www.tripadvisor.cl/Attraction_Review-g294305-d314520-Reviews-Metropolitan_Cathedral_Catedral_Metropolitana-Santiago_Santiago_Metropolitan_Regio.html","desde $22.144 ,desde $31.769 ,desde $17.690 ,desde $12.996 ","Plaza de Armas, Santiago","-33.43851999999998","-70.65122999999994","3167","6466","986","64","41","58","NA","16","25","29","Atracciones y lugares de interés, Edificios con valor arquitectónico","2019-10-12"
"Parque Arauco","4,5","3.702 opiniones","https://www.tripadvisor.cl/Attraction_Review-g294305-d2491922-Reviews-Parque_Arauco-Santiago_Santiago_Metropolitan_Region.html","desde $22.144 ,desde $56.318 ","Avenida Presidente Kennedy 5413, Santiago","-33.401984775944534","-70.58031541712118","1858","1755","173","7","6","9","18","4","2","4","Compras, Centros comerciales","2019-10-12"
"Bellavista","4,5","6.985 opiniones","https://www.tripadvisor.cl/Attraction_Review-g294305-d314523-Reviews-Barrio_Bellavista-Santiago_Santiago_Metropolitan_Region.html","desde $22.144 ,desde $12.996 ,desde $31.769 ,desde $22.217 ","NA","-22.138976121999974","17.22149898400005","2969","3630","922","67","41","7","21","15","16","4","Atracciones y lugares de interés, Otros, barrios","2019-10-12"
"Fantasilandia","4,0","1.163 opiniones","https://www.tripadvisor.cl/Attraction_Review-g294305-d3216681-Reviews-Fantasilandia-Santiago_Santiago_Metropolitan_Region.html","desde $144.404 ,desde $4.982 ,desde $15.162 ,desde $21.588 ","Beaucheff Nº 938, Santiago","-33.45867982788427","-70.6638993083518","885","248","50","5","4","2","NA","1","3","NA","Parques acuáticos y de diversiones, Parques temáticos","2019-10-12"
"Costanera Center","4,5","14.342 opiniones","https://www.tripadvisor.cl/Attraction_Review-g294305-d3228943-Reviews-Costanera_Center-Santiago_Santiago_Metropolitan_Region.html","desde $66.426 ,desde $79.422 ,desde $34.657 ,desde $36.101 ","Avenida Andrés Bello 2425, Santiago","-33.416402508734805","-70.6070232183702","7720","6248","756","26","23","50","36","6","7","7","Compras, Centros comerciales","2019-10-12"
"La Moneda","4,5","7.720 opiniones","https://www.tripadvisor.cl/Attraction_Review-g294305-d318159-Reviews-La_Moneda-Santiago_Santiago_Metropolitan_Region.html","desde $17.690 ,desde $22.144 ,desde $12.996 ,desde $31.769 ","Moneda S/N, Santiago","-33.444174380258914","-70.67008770724436","2347","5045","450","47","20","60","NA","5","18","21","Atracciones y lugares de interés, Edificios gubernamentales","2019-10-12"
"Barrio Italia","4,5","1.316 opiniones","https://www.tripadvisor.cl/Attraction_Review-g294305-d4495132-Reviews-Barrio_Italia-Santiago_Santiago_Metropolitan_Region.html","desde $71.480 ,desde $21.588 ,desde $22.144 ,desde $4.982 ","Avenida Italia, Santiago","-33.444321928297875","-70.62568705423499","1046","189","153","7","4","8","NA","1","1","2","Atracciones y lugares de interés, Otros, barrios","2019-10-12"
"Santa Carolina","5,0","499 opiniones","https://www.tripadvisor.cl/Attraction_Review-g294305-d8126752-Reviews-Santa_Carolina-Santiago_Santiago_Metropolitan_Region.html","desde $129.964 ,desde $104.693 ","Til Til 2228, Santiago","-33.47478774001377","-70.61861838783437","81","386","47","3","2","NA","NA","NA","NA","NA","Comida y bebida, Bodegas y viñedos","2019-10-12"
"Grand Santiago Tower","4,5","430 opiniones","https://www.tripadvisor.cl/Attraction_Review-g294305-d7287269-Reviews-Grand_Santiago_Tower-Santiago_Santiago_Metropolitan_Region.html","desde $15.162 ,desde $22.144 ,desde $501.805 ","Vitacura 180, Santiago","-33.41805733804609","-70.60536982572549","171","200","56","3","8","4","NA","3","2","4","Atracciones y lugares de interés, Monumentos y lugares de interés, Torres y observatorios","2019-10-12"
"Parque Metropolitano de Santiago - Parquemet","4,5","1.443 opiniones","https://www.tripadvisor.cl/Attraction_Review-g294305-d317955-Reviews-Parque_Metropolitano_de_Santiago_Parquemet-Santiago_Santiago_Metropolitan_Region.html","desde $22.144 ,desde $34.657 ,desde $12.996 ,desde $79.422 ","Pio Nono 450, Santiago","-33.430725766679394","-70.63629061587967","646","750","96","10","2","2","NA","1","5","NA","Naturaleza y parques, Parques","2019-10-12"
"Parque Quinta Normal","4,5","1.082 opiniones","https://www.tripadvisor.cl/Attraction_Review-g294305-d3389960-Reviews-Parque_Quinta_Normal-Santiago_Santiago_Metropolitan_Region.html","desde $4.982 ,desde $21.588 ,desde $30.325 ,desde $78.700 ","Avenida Matucana 520, Santiago","-33.44013360783654","-70.6799856684068","576","469","85","6","3","1","NA","NA","3","4","Naturaleza y parques, Parques","2019-10-12"
"Plaza de Armas","4,0","4.471 opiniones","https://www.tripadvisor.cl/Attraction_Review-g294305-d314517-Reviews-Plaza_de_Armas-Santiago_Santiago_Metropolitan_Region.html","desde $22.144 ,desde $29.964 ,desde $31.769 ,desde $36.101 ","Plaza de Armas, Santiago","-33.43851999999998","-70.65122999999994","1613","2437","633","43","37","29","5","12","14","18","Atracciones y lugares de interés, Áreas peatonales pintorescas","2019-10-12"
"Parque Forestal","4,5","2.428 opiniones","https://www.tripadvisor.cl/Attraction_Review-g294305-d314562-Reviews-Parque_Forestal-Santiago_Santiago_Metropolitan_Region.html","desde $22.144 ,desde $31.769 ,desde $24.549 ,desde $36.101 ","NA","-22.138976121999974","17.22149898400005","1191","1114","297","9","9","9","NA","4","9","5","Naturaleza y parques, Parques","2019-10-12"
"Museo Nacional de Historia Natural","4,5","510 opiniones","https://www.tripadvisor.cl/Attraction_Review-g294305-d4359311-Reviews-Museo_Nacional_de_Historia_Natural-Santiago_Santiago_Metropolitan_Region.html","desde $4.982 ,desde $21.588 ,desde $15.162 ,desde $22.144 ","Matucana 520, Santiago","-33.44013360783654","-70.6799856684068","196","282","56","1","4","1","NA","NA","2","2","Museos, Museos de historia natural","2019-10-12"
"Vina Aquitania","4,5","199 opiniones","https://www.tripadvisor.cl/Attraction_Review-g294305-d3386443-Reviews-Vina_Aquitania-Santiago_Santiago_Metropolitan_Region.html","desde $57.690 ,desde $108.303 ","Avenida Consistorial 5090 Peñalolen, Santiago","-33.489844051237334","-70.5497698466296","51","143","50","NA","NA","NA","NA","NA","NA","NA","Comida y bebida, Bodegas y viñedos","2019-10-12"
"Santuario de la Inmaculada Concepcion","4,5","3.174 opiniones","https://www.tripadvisor.cl/Attraction_Review-g294305-d7692007-Reviews-Santuario_de_la_Inmaculada_Concepcion-Santiago_Santiago_Metropolitan_Region.html","desde $22.144 ,desde $93.863 ,desde $101.083 ,desde $61.372 ","Cerro San Cristobal, Santiago","-33.423629999999946","-70.63401999999996","1149","1820","390","25","16","20","5","8","9","6","Atracciones y lugares de interés, Iglesias y catedrales, Lugares religiosos y sagrados","2019-10-12"
"Centro Cultural Palacio de la Moneda y Plaza de la Ciudadanía","4,5","4.007 opiniones","https://www.tripadvisor.cl/Attraction_Review-g294305-d3170497-Reviews-Centro_Cultural_Palacio_de_la_Moneda_y_Plaza_de_la_Ciudadania-Santiago_Santiago_M.html","desde $22.144 ,desde $25.271 ,desde $60.650 ,desde $43.321 ","Plaza de la Ciudadanía N 26, Santiago","-33.41607727698958","-70.70363458078488","1588","2324","196","8","6","18","NA","3","6","3","Museos, Atracciones y lugares de interés, Museos especializados, Lugares históricos Más","2019-10-12"
"La Parva Centro de Ski","4,0","432 opiniones","https://www.tripadvisor.cl/Attraction_Review-g294305-d314683-Reviews-La_Parva_Ski_Resort-Santiago_Santiago_Metropolitan_Region.html","desde $50.542 ,desde $16.534 ,desde $30.253 ,desde $29.964 ","Luis Carrera 1263, of.402, Santiago","-33.39774197002137","-70.57665840409152","199","206","51","5","1","2","NA","NA","NA","NA","Actividades al aire libre, Naturaleza y parques, Áreas para esquiar y practicar snowboard","2019-10-12"
"Parque De Las Esculturas","4,0","896 opiniones","https://www.tripadvisor.cl/Attraction_Review-g294305-d2056190-Reviews-Parque_De_Las_Esculturas-Santiago_Santiago_Metropolitan_Region.html","desde $34.657 ,desde $24.549 ,desde $93.863 ,desde $79.422 ","Santa Maria, 2205, Santiago","-33.47696351343272","-70.57212999847853","427","429","91","5","NA","2","NA","1","2","NA","Naturaleza y parques, Parques","2019-10-12"
"Vitacura","4,5","468 opiniones","https://www.tripadvisor.cl/Attraction_Review-g294305-d5929758-Reviews-Vitacura-Santiago_Santiago_Metropolitan_Region.html","desde $72.202 ,desde $34.657 ,desde $36.101 ,desde $79.422 ","NA","-22.138976121999974","17.22149898400005","284","158","41","1","3","3","NA","1","2","2","Atracciones y lugares de interés, Otros, barrios","2019-10-12"
"El Colorado Ski Center","4,5","1.551 opiniones","https://www.tripadvisor.cl/Attraction_Review-g294305-d314687-Reviews-El_Colorado_Ski_Center-Santiago_Santiago_Metropolitan_Region.html","desde $42.599 ,desde $32.491 ,desde $50.542 ,desde $50.542 ","Avenida El Colorado, Santiago","-33.34928999999994","-70.29194999999999","454","1075","69","3","NA","2","1","NA","1","NA","Naturaleza y parques, Actividades al aire libre, Áreas para esquiar y practicar snowboard","2019-10-12"
"Isidora Goyenechea","4,5","943 opiniones","https://www.tripadvisor.cl/Attraction_Review-g294305-d638059-Reviews-Isidora_Goyenechea-Santiago_Santiago_Metropolitan_Region.html","desde $22.144 ,desde $4.982 ,desde $21.588 ,desde $15.162 ","Isidora Goyenechea Ave., Santiago","-33.41428970094023","-70.59854977765515","604","302","68","1","4","7","NA","1","2","2","Atracciones y lugares de interés, Otros, barrios","2019-10-12"
"Alto Las Condes","4,0","483 opiniones","https://www.tripadvisor.cl/Attraction_Review-g294305-d318141-Reviews-Alto_Las_Condes-Santiago_Santiago_Metropolitan_Region.html","desde $56.318 ,desde $36.101 ,desde $28.881 ","Las Condes, Santiago","-33.41656999999998","-70.59552999999994","388","79","27","NA","1","NA","NA","NA","1","NA","Compras, Centros comerciales","2019-10-12"
"Barrio Paris Londres","4,0","987 opiniones","https://www.tripadvisor.cl/Attraction_Review-g294305-d2068993-Reviews-Barrio_Paris_Londres-Santiago_Santiago_Metropolitan_Region.html","desde $36.101 ,desde $57.762 ,desde $27.437 ,desde $75.812 ","NA","-22.138976121999974","17.22149898400005","448","490","65","11","3","6","NA","1","3","3","Atracciones y lugares de interés, Otros, barrios","2019-10-12"
"Baha'i House of Worship","5,0","86 opiniones","https://www.tripadvisor.cl/Attraction_Review-g294305-d11677942-Reviews-Baha_i_House_of_Worship-Santiago_Santiago_Metropolitan_Region.html","desde $36.585 ,desde $43.321 ","Diagonal Las Torres 2000, Santiago","-33.45802262367376","-70.73139993153369","41","35","23","1","1","NA","NA","NA","1","NA","Atracciones y lugares de interés, Iglesias y catedrales, Monumentos y lugares de interés, Lugares religiosos y sagrados Más","2019-10-12"
"Museo Violeta Parra","4,5","208 opiniones","https://www.tripadvisor.cl/Attraction_Review-g294305-d8698409-Reviews-Museo_Violeta_Parra-Santiago_Santiago_Metropolitan_Region.html","desde $15.162 ,desde $22.144 ,desde $21.588 ,desde $71.480 ","Av. Vicuna Mackenna N°37, Santiago","-33.43877590313922","-70.63484117014822","126","54","27","3","NA","3","NA","NA","NA","1","Museos, Museos de historia, Museos de arte","2019-10-12"
"La Vega Central","4,0","323 opiniones","https://www.tripadvisor.cl/Attraction_Review-g294305-d2342630-Reviews-La_Vega_Central-Santiago_Santiago_Metropolitan_Region.html","desde $55.596 ,desde $91.458 ,desde $29.603 ,desde $38.989 ","Davila Baeza 700, Santiago","-33.42821010428983","-70.64836336168644","225","59","74","2","5","5","NA","2","2","1","Compras, Mercados de las pulgas y al aire libre","2019-10-12"
"Museo Histórico Nacional","4,0","1.038 opiniones","https://www.tripadvisor.cl/Attraction_Review-g294305-d318153-Reviews-National_Museum_of_History-Santiago_Santiago_Metropolitan_Region.html","desde $22.144 ,desde $12.996 ,desde $21.661 ,desde $25.993 ","Plaza de Armas, 951, Santiago","-33.43726468942238","-70.65062337829649","381","567","160","9","7","4","NA","4","5","4","Museos, Museos de historia","2019-10-12"
"Santuario de la Naturaleza el Arrayan","4,0","181 opiniones","https://www.tripadvisor.cl/Attraction_Review-g294305-d2234572-Reviews-Santuario_de_la_Naturaleza_el_Arrayan-Santiago_Santiago_Metropolitan_Region.html","desde $15.162 ,desde $71.480 ,desde $21.588 ,desde $4.982 ","Camino El Cajon, Santiago","35.56588000000005","-104.63998999999995","163","13","15","NA","1","NA","NA","NA","NA","NA","Naturaleza y parques, Áreas de naturaleza y vida silvestre","2019-10-12"
"Museo de Colo Colo","4,5","163 opiniones","https://www.tripadvisor.cl/Attraction_Review-g294305-d1466547-Reviews-Museo_de_Colo_Colo-Santiago_Santiago_Metropolitan_Region.html","desde $21.588 ,desde $15.162 ,desde $71.480 ,desde $4.982 ","Avda. Marathon 5300, Santiago","-33.505640152123206","-70.60746081444937","80","76","9","NA","1","1","NA","NA","NA","NA","Museos, Museos especializados","2019-10-12"
"Teatro Municipal de Santiago","4,5","618 opiniones","https://www.tripadvisor.cl/Attraction_Review-g294305-d314564-Reviews-Teatro_Municipal_de_Santiago-Santiago_Santiago_Metropolitan_Region.html","desde $22.144 ,desde $83.682 ,desde $94.513 ,desde $25.271 ","Agustinas 794, Santiago","-33.44061573943438","-70.64796407136714","374","220","71","NA","2","1","NA","NA","3","1","Conciertos y espectáculos, Teatros","2019-10-12"
"Zoológico Nacional de Chile","4,0","1.702 opiniones","https://www.tripadvisor.cl/Attraction_Review-g294305-d318143-Reviews-Zoologico_Nacional_de_Chile-Santiago_Santiago_Metropolitan_Region.html","desde $3.610 ,desde $22.144 ,desde $21.588 ,desde $4.982 ","Pío Nono, 289, Santiago","-33.43089906092919","-70.63615540741108","552","1101","117","4","4","3","NA","2","6","NA","Actividades al aire libre, Zoológicos y acuarios, Naturaleza y parques","2019-10-12"
"Mall Sport","4,0","517 opiniones","https://www.tripadvisor.cl/Attraction_Review-g294305-d4424700-Reviews-Mall_Sport-Santiago_Santiago_Metropolitan_Region.html","desde $15.162 ,desde $21.588 ,desde $71.480 ,desde $32.491 ","Avenida Las Condes 13451, Santiago","-33.37025843104038","-70.50739879808414","219","286","24","3","1","1","NA","NA","NA","NA","Compras, Centros comerciales","2019-10-12"
"Cerro Manquehue","4,5","88 opiniones","https://www.tripadvisor.cl/Attraction_Review-g294305-d7951959-Reviews-Cerro_Manquehue-Santiago_Santiago_Metropolitan_Region.html","desde $45.487 ,desde $46.209 ,desde $46.209 ","AV. Manquehue Norte 1926, Santiago","-33.388354267009","-70.57510085166476","76","7","14","NA","2","NA","NA","NA","NA","NA","Actividades al aire libre, Naturaleza y parques, Rutas para senderismo, Montañas Más","2019-10-12"
"Casacostanera","4,5","164 opiniones","https://www.tripadvisor.cl/Attraction_Review-g294305-d8754433-Reviews-Casacostanera-Santiago_Santiago_Metropolitan_Region.html","desde $15.884 ,desde $21.588 ,desde $4.982 ,desde $4.982 ","Nueva Costanera 3900, Santiago","-33.39862741687345","-70.59790869458692","142","17","10","NA","1","NA","NA","NA","NA","NA","Compras, Centros comerciales","2019-10-12"
"Iglesia San Francisco","4,5","976 opiniones","https://www.tripadvisor.cl/Attraction_Review-g294305-d314551-Reviews-San_Francisco_Church-Santiago_Santiago_Metropolitan_Region.html","desde $22.144 ,desde $36.101 ,desde $57.762 ,desde $75.812 ","Av Libertador Bernardo O'Higgins 834, Santiago","-33.662683087055875","-70.92541038321723","518","344","153","10","9","10","NA","6","5","8","Atracciones y lugares de interés, Iglesias y catedrales","2019-10-12"
"Planetario de Santiago - Universidad de Santiago de Chile - Usach","4,5","176 opiniones","https://www.tripadvisor.cl/Attraction_Review-g294305-d6428009-Reviews-Planetario_de_Santiago_Universidad_de_Santiago_de_Chile_Usach-Santiago_Santiago_M.html","desde $174.051 ,desde $174.051 ,desde $45.126 ,desde $469.314 ","Avenida Libertador Bernardo O'Higgins 3349, Santiago","-33.45072855874185","-70.67935665506357","148","26","6","NA","NA","NA","NA","NA","NA","1","Museos, Museos especializados","2019-10-12"
"Cementerio General (General Cemetery)","4,5","334 opiniones","https://www.tripadvisor.cl/Attraction_Review-g294305-d314449-Reviews-Cementerio_General_General_Cemetery-Santiago_Santiago_Metropolitan_Region.html","desde $43.321 ,desde $24.549 ,desde $57.762 ","Avenida La Paz, Santiago","-33.432298178176026","-70.65163411804062","259","27","89","5","3","7","NA","NA","2","NA","Atracciones y lugares de interés, Cementerios","2019-10-12"
"Mall Plaza Los Dominicos","4,5","77 opiniones","https://www.tripadvisor.cl/Attraction_Review-g294305-d12918845-Reviews-Mall_Plaza_Los_Dominicos-Santiago_Santiago_Metropolitan_Region.html","desde $50.542 ,desde $4.982 ,desde $21.588 ,desde $41.155 ","Padre Hurtado Sur 875, Santiago","-33.41508195815697","-70.53959428478821","70","2","4","NA","NA","NA","NA","NA","NA","NA","Compras, Centros comerciales","2019-10-12"
"Central Market (Mercado Central)","3,5","6.010 opiniones","https://www.tripadvisor.cl/Attraction_Review-g294305-d314484-Reviews-Central_Market_Mercado_Central-Santiago_Santiago_Metropolitan_Region.html","desde $22.144 ,desde $55.596 ,desde $17.690 ,desde $91.458 ","San Pablo 967, Santiago","-33.59865498472912","-70.70767502192497","1739","3843","690","44","39","54","5","13","16","20","Compras, Mercados de las pulgas y al aire libre","2019-10-12"
"Museo Nacional de Bellas Artes","4,0","2.023 opiniones","https://www.tripadvisor.cl/Attraction_Review-g294305-d314561-Reviews-Chilean_National_Museum_of_Fine_Arts-Santiago_Santiago_Metropolitan_Region.html","desde $22.144 ,desde $198.484 ,desde $2.599.278 ,desde $60.650 ","José Miguel de la Barra 650, Santiago","-33.43605932057417","-70.64336092105239","789","1090","283","18","9","12","NA","7","5","7","Atracciones y lugares de interés, Otros, Museos, barrios, Museos de arte Más","2019-10-12"
"Museo Nacional Aeronautico y del Espacio","4,5","83 opiniones","https://www.tripadvisor.cl/Attraction_Review-g294305-d2367905-Reviews-Museo_Nacional_Aeronautico_y_del_Espacio-Santiago_Santiago_Metropolitan_Region.html","desde $71.480 ,desde $22.144 ,desde $4.982 ,desde $4.982 ","Av. Pedro Aguirre Cerda 5000, Santiago","-33.48585779305179","-70.69764229130216","62","13","13","1","1","NA","NA","1","NA","NA","Museos, Museos especializados","2019-10-12"
"Parque O'Higgins","4,0","261 opiniones","https://www.tripadvisor.cl/Attraction_Review-g294305-d651155-Reviews-Parque_O_Higgins-Santiago_Santiago_Metropolitan_Region.html","desde $21.588 ,desde $78.700 ,desde $15.162 ,desde $71.480 ","Av. Manuel Antonio Matta Altura 1650, Santiago","-33.460591022308236","-70.65638463692234","182","66","23","2","NA","1","NA","NA","1","1","Naturaleza y parques, Parques","2019-10-12"
"Bio-Bio Market","4,0","107 opiniones","https://www.tripadvisor.cl/Attraction_Review-g294305-d318142-Reviews-Bio_Bio_Market-Santiago_Santiago_Metropolitan_Region.html","desde $71.480 ,desde $4.982 ,desde $21.588 ,desde $41.155 ","NA","-22.138976121999974","17.22149898400005","80","16","24","2","NA","1","NA","1","NA","NA","Compras, Mercados de las pulgas y al aire libre","2019-10-12"
"Plaza Ñuñoa","4,5","394 opiniones","https://www.tripadvisor.cl/Attraction_Review-g294305-d2538166-Reviews-Plaza_Nunoa-Santiago_Santiago_Metropolitan_Region.html","desde $21.588 ,desde $71.480 ,desde $11.480 ,desde $4.982 ","Av. Irarrázaval 3550, Santiago","-33.454295528997676","-70.59366899999999","353","32","21","NA","NA","2","NA","1","NA","NA","Atracciones y lugares de interés, Naturaleza y parques, Monumentos y lugares de interés, Parques Más","2019-10-12"
"Centro Cultural Gabriela Mistral GAM","4,5","372 opiniones","https://www.tripadvisor.cl/Attraction_Review-g294305-d3737093-Reviews-Centro_Cultural_Gabriela_Mistral_GAM-Santiago_Santiago_Metropolitan_Region.html","desde $43.321 ,desde $53.430 ,desde $24.549 ,desde $81.827 ","Avenida Libertador Bernardo O'Higgins 227, Santiago","-33.35825557507646","-70.72934485763736","205","147","44","2","2","3","NA","4","1","NA","Conciertos y espectáculos, Teatros","2019-10-12"
"Biblioteca Nacional (National Library)","4,5","611 opiniones","https://www.tripadvisor.cl/Attraction_Review-g294305-d318155-Reviews-Biblioteca_Nacional_National_Library-Santiago_Santiago_Metropolitan_Region.html","desde $36.101 ,desde $75.812 ,desde $25.271 ,desde $57.762 ","Avenida Libertador Bernardo O'Higgins 651, Santiago","-33.442649484448516","-70.6457687198204","253","314","54","6","5","3","NA","2","7","3","Recursos para viajeros, Bibliotecas","2019-10-12"
"Castillo Hidalgo","4,0","635 opiniones","https://www.tripadvisor.cl/Attraction_Review-g294305-d7786243-Reviews-Castillo_Hidalgo-Santiago_Santiago_Metropolitan_Region.html","desde $22.144 ,desde $17.690 ,desde $198.484 ,desde $19.422 ","Santa Lucía, 299, Santiago","-33.43357874039002","-70.82410372601089","280","322","80","2","1","5","NA","2","3","3","Atracciones y lugares de interés, Castillos","2019-10-12"
"Estación Central","4,0","210 opiniones","https://www.tripadvisor.cl/Attraction_Review-g294305-d4602575-Reviews-Estacion_Central-Santiago_Santiago_Metropolitan_Region.html","desde $71.480 ,desde $21.588 ,desde $4.982 ,desde $15.162 ","Alameda s/n, Santiago","-33.287409","-70.75702575","131","68","18","NA","1","NA","NA","1","NA","3","Atracciones y lugares de interés, Monumentos y lugares de interés","2019-10-12"
"Piscina Antilen","4,0","83 opiniones","https://www.tripadvisor.cl/Attraction_Review-g294305-d1603724-Reviews-Piscina_Antilen-Santiago_Santiago_Metropolitan_Region.html","desde $71.480 ,desde $21.588 ,desde $15.162 ,desde $32.491 ","Parque Metropolitano, Santiago","-33.43081999999998","-70.63606999999996","66","11","11","2","1","NA","NA","NA","NA","NA","Naturaleza y parques, Parques","2019-10-12"
"Plaza de la Aviacion","4,0","164 opiniones","https://www.tripadvisor.cl/Attraction_Review-g294305-d7757031-Reviews-Plaza_de_la_Aviacion-Santiago_Santiago_Metropolitan_Region.html","desde $24.549 ,desde $60.650 ","Av. Nueva Providencia (Av. Eliodoro Yañez), Santiago","-33.43120268891289","-70.60842860441373","104","52","9","NA","1","1","NA","NA","1","1","Atracciones y lugares de interés, Monumentos y lugares de interés, Fuentes","2019-10-12"
"Parque Fluvial Padre Renato Poblete","4,5","76 opiniones","https://www.tripadvisor.cl/Attraction_Review-g294305-d7654321-Reviews-Parque_Fluvial_Padre_Renato_Poblete-Santiago_Santiago_Metropolitan_Region.html","desde $21.588 ,desde $78.700 ,desde $90.325 ,desde $51.986 ","Pdte. Balmaceda 2874, Santiago","-33.541103673230566","-70.78957367951797","70","4","6","1","NA","NA","NA","NA","NA","NA","Naturaleza y parques, Parques estatales, Parques","2019-10-12"
"Iglesia de La Merced","4,5","902 opiniones","https://www.tripadvisor.cl/Attraction_Review-g294305-d318162-Reviews-Iglesia_de_La_Merced-Santiago_Santiago_Metropolitan_Region.html","desde $27.437 ,desde $18.051 ,desde $10.108 ,desde $16.606 ","Enrique Mac Iver, 399, Santiago","-33.4380991524397","-70.64695548110664","676","190","40","6","5","3","NA","1","3","2","Atracciones y lugares de interés, Lugares religiosos y sagrados","2019-10-12"
"Andes Mountains","4,5","50 opiniones","https://www.tripadvisor.cl/Attraction_Review-g294305-d315395-Reviews-Andes_Mountains-Santiago_Santiago_Metropolitan_Region.html","desde $77.978 ,desde $56.318 ,desde $46.209 ,desde $106.137 ","NA","-22.138976121999974","17.22149898400005","20","26","21","NA","NA","NA","NA","2","NA","NA","Naturaleza y parques, Montañas","2019-10-12"
"Teatro Municipal de Las Condes","4,5","446 opiniones","https://www.tripadvisor.cl/Attraction_Review-g294305-d4267183-Reviews-Teatro_Municipal_Las_Condes-Santiago_Santiago_Metropolitan_Region.html","desde $71.480 ,desde $15.162 ,desde $21.588 ,desde $3.610 ","Avenida Apoquindo 3300, Santiago","-33.4165849141904","-70.59570529851682","380","56","30","2","2","1","NA","NA","1","NA","Atracciones y lugares de interés, Monumentos y lugares de interés","2019-10-12"
"Estadio Monumental David Arellano","4,0","130 opiniones","https://www.tripadvisor.cl/Attraction_Review-g294305-d8178674-Reviews-Estadio_Monumental_David_Arellano-Santiago_Santiago_Metropolitan_Region.html","desde $27.437 ,desde $18.051 ,desde $10.108 ,desde $16.606 ","Av. Marathon 5300, Santiago","-33.505640152123206","-70.60746081444937","60","68","3","NA","NA","1","NA","NA","NA","NA","Atracciones y lugares de interés, Campos de juego y estadios","2019-10-12"
"Museo Artequin","4,0","125 opiniones","https://www.tripadvisor.cl/Attraction_Review-g294305-d317876-Reviews-Museo_Artequin-Santiago_Santiago_Metropolitan_Region.html","desde $15.162 ,desde $4.982 ,desde $22.144 ,desde $21.588 ","Avda. Portales 3530, Santiago","-33.44412848211083","-70.68410071717929","75","41","12","NA","1","2","NA","NA","NA","1","Museos, Museos especializados","2019-10-12"
"Parque Quebrada de Macul","4,5","49 opiniones","https://www.tripadvisor.cl/Attraction_Review-g294305-d9461270-Reviews-Parque_Quebrada_de_Macul-Santiago_Santiago_Metropolitan_Region.html","desde $21.588 ,desde $90.325 ,desde $71.480 ,desde $4.982 ","Avenida Diagonal Las Torres s/n, Santiago","-33.46821617869873","-70.52990658874116","45","NA","4","NA","1","NA","NA","NA","NA","NA","Naturaleza y parques, Parques nacionales","2019-10-12"
"Plaza de La Constitución","4,0","772 opiniones","https://www.tripadvisor.cl/Attraction_Review-g294305-d317885-Reviews-Plaza_de_La_Constitucion-Santiago_Santiago_Metropolitan_Region.html","desde $22.144 ,desde $198.484 ,desde $25.271 ,desde $36.101 ","Moneda and Morande, Santiago","-33.442173","-70.6533705","316","406","71","5","4","5","NA","2","5","4","Atracciones y lugares de interés, Monumentos y lugares de interés","2019-10-12"
"Paseo Ahumada","4,0","953 opiniones","https://www.tripadvisor.cl/Attraction_Review-g294305-d314501-Reviews-Paseo_Ahumada-Santiago_Santiago_Metropolitan_Region.html","desde $17.690 ,desde $91.458 ,desde $36.101 ,desde $19.422 ","Ahumada, Santiago","-33.46909999999997","-70.64196999999996","373","555","27","4","1","4","NA","NA","3","1","Atracciones y lugares de interés, Monumentos y lugares de interés","2019-10-12"
"Central Post Office (Museo Postal)","4,0","254 opiniones","https://www.tripadvisor.cl/Attraction_Review-g294305-d318171-Reviews-Central_Post_Office_Museo_Postal-Santiago_Santiago_Metropolitan_Region.html","desde $22.144 ,desde $198.484 ,desde $19.422 ,desde $60.650 ","Plaza de Armas, Santiago","-33.43851999999998","-70.65122999999994","120","107","45","2","4","1","NA","1","3","5","Museos, Museos especializados","2019-10-12"
"Arauco Premium Outlet Buenaventura","3,5","595 opiniones","https://www.tripadvisor.cl/Attraction_Review-g294305-d6882513-Reviews-Arauco_Premium_Outlet_Buenaventura-Santiago_Santiago_Metropolitan_Region.html","desde $21.588 ,desde $4.982 ,desde $71.480 ,desde $15.162 ","Av. San Ignacio, 500, Santiago","-33.330728697609814","-70.70386765678295","417","170","9","NA","1","1","NA","NA","NA","NA","Compras, Tiendas de fábricas","2019-10-12"
"Jardin Japones","4,0","96 opiniones","https://www.tripadvisor.cl/Attraction_Review-g294305-d6276388-Reviews-Jardin_Japones-Santiago_Santiago_Metropolitan_Region.html","desde $15.162 ,desde $3.610 ,desde $21.588 ,desde $71.480 ","Pedro de Valdivia Nte, s/n, Santiago","-33.41763999999995","-70.61427999999995","66","26","6","2","1","NA","NA","NA","NA","NA","Naturaleza y parques, Jardines","2019-10-12"
"Museos Ralli","4,5","117 opiniones","https://www.tripadvisor.cl/Attraction_Review-g294305-d2181806-Reviews-Museo_Ralli_Santiago-Santiago_Santiago_Metropolitan_Region.html","desde $71.480 ,desde $15.162 ,desde $3.610 ,desde $21.588 ","Calle Alonso de Sotomayor, 4110, Santiago","-33.397090576172985","-70.59183663044607","73","28","40","3","2","NA","NA","NA","NA","NA","Museos, Museos de arte","2019-10-12"
"Museo Ferroviario de Santiago","4,0","164 opiniones","https://www.tripadvisor.cl/Attraction_Review-g294305-d3637962-Reviews-Museo_Ferroviario_de_Santiago-Santiago_Santiago_Metropolitan_Region.html","desde $71.480 ,desde $22.144 ,desde $21.588 ,desde $25.271 ","Parque Quinta Normal, Santiago","-33.44393999999994","-70.68417999999997","109","47","26","NA","1","1","NA","1","NA","2","Museos, Museos especializados, Museos de historia","2019-10-12"
"Gran Torre Santiago","4,5","28 opiniones","https://www.tripadvisor.cl/Attraction_Review-g294305-d10712822-Reviews-Gran_Torre_Santiago-Santiago_Santiago_Metropolitan_Region.html","desde $15.162 ,desde $4.982 ,desde $21.588 ,desde $78.700 ","Avenida Andres Bello 2457, Santiago","-33.416402508734805","-70.6070232183702","16","9","7","1","NA","NA","NA","NA","NA","NA","Atracciones y lugares de interés, Monumentos y lugares de interés, Torres y observatorios","2019-10-12"
"Museo de Arte Colonial de San Francisco","4,0","225 opiniones","https://www.tripadvisor.cl/Attraction_Review-g294305-d317863-Reviews-Museo_de_Arte_Colonial_de_San_Francisco-Santiago_Santiago_Metropolitan_Region.html","desde $10.108 ,desde $10.108 ,desde $140.794 ,desde $15.884 ","Avenida Libertador Bernardo O'Higgins 834, Santiago","-33.662683087055875","-70.92541038321723","113","99","23","2","1","2","NA","1","NA","4","Museos, Museos especializados","2019-10-12"
"Mercado Tirso de Molina","4,0","201 opiniones","https://www.tripadvisor.cl/Attraction_Review-g294305-d6754070-Reviews-Mercado_Tirso_de_Molina-Santiago_Santiago_Metropolitan_Region.html","desde $36.101 ,desde $75.812 ,desde $42.599 ,desde $54.152 ","Av. Santa María 409, Santiago","-33.43337893111265","-70.64513919328729","142","49","19","NA","1","NA","NA","NA","NA","2","Comida y bebida, Compras, Mercados de agricultores","2019-10-12"
"Centro Artesanal Santa Lucia","4,0","202 opiniones","https://www.tripadvisor.cl/Attraction_Review-g294305-d3729584-Reviews-Centro_Artesanal_Santa_Lucia-Santiago_Santiago_Metropolitan_Region.html","desde $4.982 ,desde $71.480 ,desde $21.588 ,desde $15.162 ","Carmen, Santiago","-33.44344001832183","-70.64316999942304","59","132","34","2","NA","3","NA","1","NA","1","Compras, Mercados de las pulgas y al aire libre","2019-10-12"
"Palacio de Tribunales de Justicia","4,0","130 opiniones","https://www.tripadvisor.cl/Attraction_Review-g294305-d5245018-Reviews-Palacio_de_Tribunales_de_Justicia-Santiago_Santiago_Metropolitan_Region.html","desde $43.321 ,desde $60.650 ,desde $42.599 ,desde $81.827 ","Rua Companía de Jesus, Santiago","-33.34949878754371","-70.74478107933388","59","65","8","1","1","2","NA","NA","NA","1","Atracciones y lugares de interés, Monumentos y lugares de interés","2019-10-12"
"Museo a Cielo Abierto en San Miguel","4,5","57 opiniones","https://www.tripadvisor.cl/Attraction_Review-g294305-d6664313-Reviews-Museo_a_Cielo_Abierto_en_San_Miguel-Santiago_Santiago_Metropolitan_Region.html","desde $27.437 ,desde $18.051 ,desde $10.108 ,desde $16.606 ","Av. Departamental 1390, Santiago","-33.50205392812619","-70.66011774937962","42","12","15","NA","NA","NA","NA","NA","NA","NA","Atracciones y lugares de interés, Monumentos y lugares de interés","2019-10-12"
"Museo Palacio Cousiño","4,5","87 opiniones","https://www.tripadvisor.cl/Attraction_Review-g294305-d314555-Reviews-Museo_Palacio_Cousino-Santiago_Santiago_Metropolitan_Region.html","desde $90.253 ,desde $318.412 ","Dieciocho 438, Santiago","-33.451923185123206","-70.65713959380234","59","21","10","NA","NA","1","NA","NA","1","NA","Museos, Museos de historia","2019-10-12"
"Centro Cultural Estación Mapocho","4,0","225 opiniones","https://www.tripadvisor.cl/Attraction_Review-g294305-d317866-Reviews-Centro_Cultural_Estacion_Mapocho-Santiago_Santiago_Metropolitan_Region.html","desde $22.144 ,desde $69.805 ","Plaza de la Cultura S/N, Santiago","-33.41836807609139","-70.76160865051669","144","69","18","3","1","3","1","NA","NA","NA","Atracciones y lugares de interés, Monumentos y lugares de interés","2019-10-12"
"Museo de Artes Visuales","4,0","118 opiniones","https://www.tripadvisor.cl/Attraction_Review-g294305-d317882-Reviews-Museo_de_Artes_Visuales-Santiago_Santiago_Metropolitan_Region.html","desde $22.144 ,desde $15.162 ,desde $21.588 ,desde $71.480 ","Jose Victorino Lastarria 307, Santiago","-33.43769811201415","-70.6409744430491","67","35","38","NA","NA","1","NA","NA","NA","1","Museos, Museos de arte","2019-10-12"
"Valle Nevado","4,5","214 opiniones","https://www.tripadvisor.cl/Attraction_Review-g294305-d12978347-Reviews-Valle_Nevado-Santiago_Santiago_Metropolitan_Region.html","desde $50.542 ,desde $21.588 ,desde $4.982 ,desde $71.480 ","NA","-22.138976121999974","17.22149898400005","33","177","5","NA","NA","NA","NA","NA","NA","NA","Naturaleza y parques, Actividades al aire libre, Áreas para esquiar y practicar snowboard","2019-10-12"
"Barrio Yungay","4,0","58 opiniones","https://www.tripadvisor.cl/Attraction_Review-g294305-d4380069-Reviews-Barrio_Yungay_Yungay_Town-Santiago_Santiago_Metropolitan_Region.html","desde $28.881 ,desde $64.982 ,desde $69.805 ,desde $6.137 ","NA","-22.138976121999974","17.22149898400005","48","7","7","1","1","NA","NA","NA","NA","NA","Atracciones y lugares de interés, Monumentos y lugares de interés","2019-10-12"
"Templo Votivo de Maipu","4,0","130 opiniones","https://www.tripadvisor.cl/Attraction_Review-g294305-d590993-Reviews-Templo_Votivo_de_Maipu-Santiago_Santiago_Metropolitan_Region.html","desde $27.437 ,desde $18.051 ,desde $10.108 ,desde $16.606 ","Avenida 5 de Abril s/n, Santiago","-33.47332351555423","-70.72214685814959","111","9","12","NA","2","2","1","NA","NA","NA","Atracciones y lugares de interés, Lugares religiosos y sagrados","2019-10-12"
"Londres 38","4,0","37 opiniones","https://www.tripadvisor.cl/Attraction_Review-g294305-d10076210-Reviews-Londres_38-Santiago_Santiago_Metropolitan_Region.html","desde $25.271 ,desde $216.606 ,desde $57.762 ","Londres 38, Santiago","-33.444318069940564","-70.64818161226844","23","9","10","1","NA","2","NA","NA","NA","NA","Museos, Museos especializados, Museos de historia","2019-10-12"
"Parque de Los Reyes","4,0","41 opiniones","https://www.tripadvisor.cl/Attraction_Review-g294305-d6107157-Reviews-Parque_de_Los_Reyes-Santiago_Santiago_Metropolitan_Region.html","desde $64.982 ,desde $69.805 ","Avenida Balmaceda - Costanera Norte - Entre Estacion Mapocho y Bulnes, Santiago","-33.427853768116535","-70.6732105561577","31","8","4","NA","NA","NA","NA","NA","NA","NA","Atracciones y lugares de interés, Monumentos y lugares de interés","2019-10-12"
"Easton Premium Outlet Mall","3,5","308 opiniones","https://www.tripadvisor.cl/Attraction_Review-g294305-d4059528-Reviews-Easton_Premium_Outlet_Mall-Santiago_Santiago_Metropolitan_Region.html","desde $4.982 ,desde $4.982 ,desde $71.480 ,desde $21.588 ","Ruta 5 Norte esq. San Ignacio, Sector Buenaventura, Santiago","-33.33534845567109","-70.71438352497611","237","69","7","NA","NA","NA","NA","NA","NA","NA","Compras, Centros comerciales, Tiendas de fábricas","2019-10-12"
"Cerro Pochoco","4,5","11 opiniones","https://www.tripadvisor.cl/Attraction_Review-g294305-d12093995-Reviews-Cerro_Pochoco-Santiago_Santiago_Metropolitan_Region.html","desde $21.588 ,desde $78.700 ,desde $90.325 ,desde $51.986 ","Las Condes 14412-14898, Santiago","-33.365118020798775","-70.49633463076663","11","NA","1","NA","NA","NA","NA","NA","NA","NA","Naturaleza y parques, Montañas","2019-10-12"
"Club Hípico de Santiago","4,0","51 opiniones","https://www.tripadvisor.cl/Attraction_Review-g294305-d3927770-Reviews-Club_Hipico_de_Santiago-Santiago_Santiago_Metropolitan_Region.html","desde $17.690 ,desde $198.484 ,desde $36.101 ,desde $19.422 ","Almirante Blanco Encalada 2540, Santiago","-33.45815560669102","-70.66998508156799","38","13","6","NA","NA","NA","NA","NA","NA","NA","Diversión y juegos, Casinos y juegos de azar, Carreras de caballos","2019-10-12"
"Barrio Concha y Toro","4,0","113 opiniones","https://www.tripadvisor.cl/Attraction_Review-g294305-d6434274-Reviews-Barrio_Concha_y_Toro-Santiago_Santiago_Metropolitan_Region.html","desde $36.101 ,desde $64.982 ,desde $64.982 ,desde $69.805 ","Calles Alameda, Erasmo Escala, Santiago","-33.44550449316125","-70.67054925921474","64","46","7","1","1","NA","NA","NA","NA","NA","Atracciones y lugares de interés, Monumentos y lugares de interés","2019-10-12"
"Ex Congreso Nacional","4,0","111 opiniones","https://www.tripadvisor.cl/Attraction_Review-g294305-d590458-Reviews-Ex_Congreso_Nacional-Santiago_Santiago_Metropolitan_Region.html","desde $17.690 ,desde $22.144 ,desde $198.484 ,desde $25.271 ","Compania y Catedral, Santiago","-33.4424831877214","-70.69574653975691","68","39","11","1","1","NA","NA","NA","NA","1","Atracciones y lugares de interés, Lugares históricos, Edificios gubernamentales, Edificios con valor arquitectónico Más","2019-10-12"
"Feria de los Dominicos","4,0","38 opiniones","https://www.tripadvisor.cl/Attraction_Review-g294305-d10411642-Reviews-Feria_de_los_Dominicos-Santiago_Santiago_Metropolitan_Region.html","desde $39.639 ,desde $71.480 ,desde $90.325 ,desde $34.433 ","Plaza de Los Dominicos, Santiago","-33.35557596847305","-70.67927124443072","17","19","5","NA","NA","1","NA","NA","NA","1","Compras, Comida y bebida, Mercados de agricultores","2019-10-12"
"Mall Chino","3,0","68 opiniones","https://www.tripadvisor.cl/Attraction_Review-g294305-d7190981-Reviews-Mall_Chino-Santiago_Santiago_Metropolitan_Region.html","desde $21.588 ,desde $4.982 ,desde $71.480 ,desde $51.986 ","Padre Alonso de Ovalle 1060, Santiago","-33.446272597995616","-70.65100303949885","54","12","4","NA","NA","1","NA","NA","NA","NA","Compras, Centros comerciales","2019-10-12"
"Basílica Los Sacramentinos","4,5","74 opiniones","https://www.tripadvisor.cl/Attraction_Review-g294305-d6902712-Reviews-Los_Sacramentinos_Basilica-Santiago_Santiago_Metropolitan_Region.html","desde $27.437 ,desde $18.051 ,desde $10.108 ,desde $16.606 ","Arturo Prat esquina Santa Isabel, Santiago","21.850000000000023","-79.78332999999998","50","23","6","NA","NA","1","NA","NA","NA","NA","Atracciones y lugares de interés, Iglesias y catedrales","2019-10-12"
"Parque Acuatico Acuapark","3,5","49 opiniones","https://www.tripadvisor.cl/Attraction_Review-g294305-d3464379-Reviews-Parque_Acuatico_Acuapark-Santiago_Santiago_Metropolitan_Region.html","desde $144.404 ,desde $50.542 ,desde $22.144 ,desde $72.924 ","Av. Caupolican 3461, Peñaflor, Chile, Santiago","-33.59794667131278","-70.88726665830966","48","1","NA","NA","NA","NA","NA","NA","NA","NA","Parques acuáticos y de diversiones","2019-10-12"
"Red House (Casa Colorada)","4,0","545 opiniones","https://www.tripadvisor.cl/Attraction_Review-g294305-d317853-Reviews-Red_House_Casa_Colorada-Santiago_Santiago_Metropolitan_Region.html","desde $22.144 ,desde $43.321 ","Merced 860, Santiago","-33.43841200592625","-70.64947640854619","475","47","23","2","2","3","NA","NA","3","2","Museos, Museos especializados","2019-10-12"
"Parque Por la Paz Villa Grimaldi","4,5","136 opiniones","https://www.tripadvisor.cl/Attraction_Review-g294305-d2520517-Reviews-Parque_por_la_Paz_Villa_Grimaldi-Santiago_Santiago_Metropolitan_Region.html","desde $21.588 ,desde $78.700 ,desde $90.325 ,desde $51.986 ","Avenida José Arrieta 8401, Santiago","-33.463045794908794","-70.54251603895378","99","23","24","4","3","3","NA","NA","NA","NA","Atracciones y lugares de interés, Naturaleza y parques, Monumentos y lugares de interés, Parques Más","2019-10-12"
"Tren Central","4,5","14 opiniones","https://www.tripadvisor.cl/Attraction_Review-g294305-d11832555-Reviews-Tren_Central-Santiago_Santiago_Metropolitan_Region.html","desde $4.982 ,desde $4.886 ,desde $39.711 ,desde $428.881 ","Avda Libertador Bernardo O""Higgins, 3170, Santiago","-33.45086507859623","-70.6786437270184","13","1","1","NA","NA","NA","NA","NA","NA","NA","Transporte, Sistemas de transporte masivo","2019-10-12"
"Metro Arte Santiago","4,5","543 opiniones","https://www.tripadvisor.cl/Attraction_Review-g294305-d5531625-Reviews-Metro_Arte_Santiago-Santiago_Santiago_Metropolitan_Region.html","desde $27.437 ,desde $18.051 ,desde $10.108 ,desde $16.606 ","Auf dem Metro-Streckennetz, Santiago","-33.43721999999997","-70.65001999999998","176","341","26","1","4","3","NA","NA","7","7","Atracciones y lugares de interés, Monumentos y lugares de interés","2019-10-12"
"Mall Arauco Maipú","4,5","41 opiniones","https://www.tripadvisor.cl/Attraction_Review-g294305-d7726307-Reviews-Mall_Arauco_Maipu-Santiago_Santiago_Metropolitan_Region.html","desde $56.318 ,desde $158.123 ,desde $288.809 ,desde $22.144 ","Avenida Américo Vespucio, 399, Santiago","-33.45632386066712","-70.76666099180568","28","13","2","NA","NA","NA","NA","NA","NA","NA","Compras, Centros comerciales","2019-10-12"
"MAC, Museo de Arte Contemporaneo","4,0","154 opiniones","https://www.tripadvisor.cl/Attraction_Review-g294305-d4817792-Reviews-MAC_Museo_de_Arte_Contemporaneo-Santiago_Santiago_Metropolitan_Region.html","desde $15.162 ,desde $4.982 ,desde $42.361 ,desde $22.144 ","Avenida Matucana 464, Santiago","-33.441713191151635","-70.67983821285033","82","66","31","1","1","NA","NA","NA","NA","2","Museos, Museos de arte","2019-10-12"
"Museo Historico y Militar de Chile","4,5","33 opiniones","https://www.tripadvisor.cl/Attraction_Review-g294305-d6988353-Reviews-Museo_Historico_y_Militar_de_Chile-Santiago_Santiago_Metropolitan_Region.html","desde $10.108 ,desde $10.108 ,desde $140.794 ,desde $15.884 ","Blanco Encalada 1550, Santiago","-33.45635887373752","-70.65646381320335","26","6","5","NA","1","NA","NA","NA","NA","NA","Museos, Museos especializados","2019-10-12"
"La Fábrica Patio Outlet","4,5","9 opiniones","https://www.tripadvisor.cl/Attraction_Review-g294305-d12711872-Reviews-La_Fabrica_Patio_Outlet-Santiago_Santiago_Metropolitan_Region.html","desde $56.318 ,desde $158.123 ,desde $288.809 ,desde $22.144 ","Av Carlos Valdovinos 200, Santiago","-33.48525524672524","-70.62655452899767","8","1","NA","NA","NA","NA","NA","NA","NA","NA","Compras, Centros comerciales","2019-10-12"
"Iglesia de San Vicente Ferrer Los Domínicos","4,0","41 opiniones","https://www.tripadvisor.cl/Attraction_Review-g294305-d7331838-Reviews-Iglesia_de_San_Vicente_Ferrer_Los_Dominicos-Santiago_Santiago_Metropolitan_Region.html","desde $27.437 ,desde $18.051 ,desde $10.108 ,desde $16.606 ","Avenida Apoquindo 8600, Santiago","-33.409479999999974","-70.56950999999998","23","15","2","NA","1","1","NA","NA","1","NA","Atracciones y lugares de interés, Iglesias y catedrales","2019-10-12"
"Iglesia de San Agustín","4,5","77 opiniones","https://www.tripadvisor.cl/Attraction_Review-g294305-d4547431-Reviews-Iglesia_de_San_Agustin-Santiago_Santiago_Metropolitan_Region.html","desde $27.437 ,desde $18.051 ,desde $10.108 ,desde $16.606 ","Agustinas con Paseo Estado, Santiago","-33.4169505","-70.6626225","50","23","8","NA","NA","1","NA","NA","1","NA","Atracciones y lugares de interés, Iglesias y catedrales","2019-10-12"
"Parque Mahuida","3,5","47 opiniones","https://www.tripadvisor.cl/Attraction_Review-g294305-d10197199-Reviews-Parque_Mahuida-Santiago_Santiago_Metropolitan_Region.html","desde $21.588 ,desde $64.982 ,desde $30.325 ,desde $15.162 ","Avenida Alcalde Fernando Castillo Velasco 110, Santiago","-33.451327299802145","-70.55141179162764","43","1","5","NA","NA","NA","NA","NA","NA","NA","Naturaleza y parques, Parques","2019-10-12"
"Estadio San Carlos de Apoquindo","4,0","43 opiniones","https://www.tripadvisor.cl/Attraction_Review-g294305-d7396374-Reviews-Estadio_San_Carlos_de_Apoquindo-Santiago_Santiago_Metropolitan_Region.html","desde $22.144 ,desde $72.924 ,desde $32.491 ,desde $32.491 ","Av. Las Flores, Santiago","36.54007997778306","-5.387530025535168","36","6","1","NA","NA","1","NA","NA","NA","NA","Diversión y juegos, Complejos deportivos","2019-10-12"
"Centro Cultural Matucana 100","4,5","57 opiniones","https://www.tripadvisor.cl/Attraction_Review-g294305-d6026626-Reviews-Centro_Cultural_Matucana_100-Santiago_Santiago_Metropolitan_Region.html","desde $55.841 ,desde $84.477 ,desde $108.303 ,desde $94.513 ","Avenida Matucana 100, Santiago","-33.44496462392521","-70.67952077381833","53","4","1","NA","NA","NA","NA","NA","NA","NA","Conciertos y espectáculos, Teatros","2019-10-12"
"Museo de la Moda","4,0","129 opiniones","https://www.tripadvisor.cl/Attraction_Review-g294305-d2514943-Reviews-Museo_de_la_Moda-Santiago_Santiago_Metropolitan_Region.html","desde $10.108 ,desde $10.108 ,desde $140.794 ,desde $15.884 ","Avenida Vitacura 4562, Santiago","-33.39819261085481","-70.58618860020765","88","33","30","1","1","1","NA","1","1","NA","Museos, Museos especializados","2019-10-12"
"Mercado Drugstore","4,0","34 opiniones","https://www.tripadvisor.cl/Attraction_Review-g294305-d8654408-Reviews-Mercado_Drugstore-Santiago_Santiago_Metropolitan_Region.html","desde $4.982 ,desde $21.588 ,desde $71.480 ,desde $22.144 ","Av. Providencia 2124, Santiago","-33.42253027531888","-70.61108520941767","19","13","2","NA","NA","NA","NA","NA","NA","1","Comida y bebida, Compras, Mercados de agricultores, Mercados de las pulgas y al aire libre Más","2019-10-12"
"Granja Educativa de Lonquen","4,0","40 opiniones","https://www.tripadvisor.cl/Attraction_Review-g294305-d7753739-Reviews-Granja_Educativa_de_Lonquen-Santiago_Santiago_Metropolitan_Region.html","desde $3.610 ,desde $71.480 ,desde $21.588 ,desde $15.162 ","Amino Las Parcelas 17, Santiago","-33.71969887266916","-70.87858774062937","37","3","NA","NA","NA","NA","NA","NA","NA","NA","Atracciones y lugares de interés, Granjas","2019-10-12"
"Paseo Bulnes","4,0","34 opiniones","https://www.tripadvisor.cl/Attraction_Review-g294305-d9867331-Reviews-Paseo_Bulnes-Santiago_Santiago_Metropolitan_Region.html","desde $22.144 ,desde $25.271 ,desde $60.650 ","Alameda del Libertador Bernardo O'Higgins, Santiago","-33.44680997778298","-70.6643000693923","25","8","1","NA","NA","NA","NA","NA","NA","NA","Atracciones y lugares de interés, Monumentos y lugares de interés","2019-10-12"
"Biblioteca de Santiago","4,5","116 opiniones","https://www.tripadvisor.cl/Attraction_Review-g294305-d4817794-Reviews-Biblioteca_de_Santiago-Santiago_Santiago_Metropolitan_Region.html","desde $22.144 ,desde $72.924 ,desde $32.491 ,desde $32.491 ","Avenida Matucana 151, Santiago","-33.44435752530735","-70.67949765989138","88","26","4","NA","1","NA","NA","NA","NA","1","Recursos para viajeros, Bibliotecas","2019-10-12"
"Cripta de Bernardo O'Higgins","4,0","20 opiniones","https://www.tripadvisor.cl/Attraction_Review-g294305-d7388132-Reviews-Cripta_de_Bernardo_O_Higgins-Santiago_Santiago_Metropolitan_Region.html","desde $27.437 ,desde $18.051 ,desde $10.108 ,desde $16.606 ","Plaza de la Ciudadania, Santiago","-33.41590358524356","-70.70165822967415","12","7","2","NA","NA","1","NA","NA","NA","NA","Atracciones y lugares de interés, Monumentos y estatuas","2019-10-12"
"Cerro Provincia","5,0","18 opiniones","https://www.tripadvisor.cl/Attraction_Review-g294305-d9979267-Reviews-Cerro_Provincia-Santiago_Santiago_Metropolitan_Region.html","desde $21.588 ,desde $78.700 ,desde $90.325 ,desde $51.986 ","NA","-22.138976121999974","17.22149898400005","16","NA","1","NA","1","NA","NA","NA","NA","NA","Naturaleza y parques, Montañas","2019-10-12"
"Barrio Brasil","4,0","73 opiniones","https://www.tripadvisor.cl/Attraction_Review-g294305-d4498732-Reviews-Barrio_Brasil-Santiago_Santiago_Metropolitan_Region.html","desde $71.480 ,desde $21.588 ,desde $51.986 ,desde $15.162 ","Around Avenida Brasil : Av. Ricardo Cumming-av. Almirante Barroso-Av.San Pablo-Liber Bernardo O'Higgins, Santiago","-33.44002999999998","-70.66487999999998","44","20","17","1","1","1","NA","1","NA","NA","Atracciones y lugares de interés, Monumentos y lugares de interés","2019-10-12"
"Corporación Cultural de las Condes","4,5","28 opiniones","https://www.tripadvisor.cl/Attraction_Review-g294305-d7276763-Reviews-Corporacion_Cultural_de_Las_Condes-Santiago_Santiago_Metropolitan_Region.html","desde $27.437 ,desde $18.051 ,desde $10.108 ,desde $16.606 ","Avenida Apoquindo, 6570, Santiago","-33.40762010770348","-70.56206686757768","26","2","1","NA","NA","NA","NA","NA","NA","NA","Atracciones y lugares de interés, Monumentos y lugares de interés","2019-10-12"
"Mall Florida Center","4,0","135 opiniones","https://www.tripadvisor.cl/Attraction_Review-g294305-d7143974-Reviews-Mall_Florida_Center-Santiago_Santiago_Metropolitan_Region.html","desde $4.982 ,desde $4.982 ,desde $21.588 ,desde $71.480 ","Avenida Vicuña Mackenna Oriente 6100, Santiago","-33.51080956867116","-70.60859296139438","114","20","5","NA","NA","NA","NA","NA","NA","NA","Compras, Centros comerciales","2019-10-12"
"Nueva Costanera","4,0","71 opiniones","https://www.tripadvisor.cl/Attraction_Review-g294305-d781068-Reviews-Nueva_Costanera-Santiago_Santiago_Metropolitan_Region.html","desde $27.437 ,desde $18.051 ,desde $10.108 ,desde $16.606 ","Nueva Costanera, Santiago","-33.3929681746031","-70.59698500415281","46","19","9","NA","1","NA","NA","1","1","NA","Atracciones y lugares de interés, Monumentos y lugares de interés","2019-10-12"
"Portal Fernández Concha","4,0","22 opiniones","https://www.tripadvisor.cl/Attraction_Review-g294305-d8790648-Reviews-Portal_Fernandez_Concha-Santiago_Santiago_Metropolitan_Region.html","desde $27.437 ,desde $18.051 ,desde $10.108 ,desde $16.606 ","Plaza de Armas s/n, Santiago","-33.43851999999998","-70.65122999999994","17","4","2","NA","NA","NA","NA","NA","NA","1","Atracciones y lugares de interés, Monumentos y lugares de interés, Edificios con valor arquitectónico","2019-10-12"
"Atelier Benoit Poirier d'Ambreville","4,5","16 opiniones","https://www.tripadvisor.cl/Attraction_Review-g294305-d7701590-Reviews-Atelier_Benoit_Poirier_d_Ambreville-Santiago_Santiago_Metropolitan_Region.html","desde $22.144 ,desde $72.924 ,desde $32.491 ,desde $32.491 ","Ernesto Pinto Lagarrigue 247, Suite 509, Santiago","-33.431389435191754","-70.63707585350456","15","NA","5","1","NA","NA","NA","NA","NA","NA","Otros","2019-10-12"
"Observatorio Astronómico Cielos Chilenos","4,5","13 opiniones","https://www.tripadvisor.cl/Attraction_Review-g294305-d9991781-Reviews-Observatorio_Astronomico_Cielos_Chilenos-Santiago_Santiago_Metropolitan_Region.html","desde $10.108 ,desde $10.108 ,desde $140.794 ,desde $15.884 ","El Pimiento 8 D,Santa Cecilia, Santiago","-16.701107157046096","-43.85209716040279","12","1","4","NA","NA","NA","NA","NA","NA","NA","Museos, Observatorios y planetarios","2019-10-12"
"Mall Plaza Egaña","4,0","151 opiniones","https://www.tripadvisor.cl/Attraction_Review-g294305-d7896076-Reviews-Mall_Plaza_Egana-Santiago_Santiago_Metropolitan_Region.html","desde $56.318 ,desde $158.123 ,desde $288.809 ,desde $22.144 ","Plaza Egaña, Santiago","-33.45200999999997","-70.57103999999998","147","4","2","NA","NA","NA","NA","NA","NA","NA","Compras, Centros comerciales","2019-10-12"
"Selva Viva","4,0","149 opiniones","https://www.tripadvisor.cl/Attraction_Review-g294305-d6594701-Reviews-Selva_Viva-Santiago_Santiago_Metropolitan_Region.html","desde $3.610 ,desde $21.588 ,desde $15.162 ,desde $22.144 ","Parque Araucano, Santiago","-33.403389999999945","-70.57817999999997","118","26","6","1","1","2","NA","NA","NA","NA","Naturaleza y parques, Zoológicos y acuarios, Actividades al aire libre","2019-10-12"
"Mampato","3,5","68 opiniones","https://www.tripadvisor.cl/Attraction_Review-g294305-d6602768-Reviews-Mampato-Santiago_Santiago_Metropolitan_Region.html","desde $50.542 ,desde $21.588 ,desde $78.700 ,desde $71.480 ","Avenida Raul Labbe 12150. Lo Barnechea, Santiago","-33.36814608407883","-70.51929721094689","67","1","2","NA","NA","NA","NA","NA","NA","NA","Parques acuáticos y de diversiones, Parques temáticos","2019-10-12"
"Portal Ñuñoa","4,0","59 opiniones","https://www.tripadvisor.cl/Attraction_Review-g294305-d7726320-Reviews-Portal_Nunoa-Santiago_Santiago_Metropolitan_Region.html","desde $56.318 ,desde $158.123 ,desde $288.809 ,desde $22.144 ","Avenida José Pedro Alessandri, 1166, Santiago","-33.46528497890817","-70.59828611682741","57","1","NA","NA","NA","1","NA","NA","NA","NA","Compras, Centros comerciales","2019-10-12"
"Puente Pío Nono","3,5","72 opiniones","https://www.tripadvisor.cl/Attraction_Review-g294305-d7318174-Reviews-Puente_Pio_Nono-Santiago_Santiago_Metropolitan_Region.html","desde $15.162 ,desde $71.480 ,desde $4.982 ,desde $21.588 ","Bellavista, Santiago","-33.43259999999998","-70.63319999999999","29","40","3","NA","NA","1","NA","NA","1","NA","Atracciones y lugares de interés, Monumentos y lugares de interés","2019-10-12"
"Torre Entel","3,5","117 opiniones","https://www.tripadvisor.cl/Attraction_Review-g294305-d5969702-Reviews-Torre_Entel-Santiago_Santiago_Metropolitan_Region.html","desde $27.437 ,desde $18.051 ,desde $10.108 ,desde $16.606 ","Esquina de Las Calles Libertador Bernando O'Higgins y Amunategui, Santiago","-33.45480999999995","-70.69442999999995","62","49","4","NA","1","1","NA","NA","1","NA","Atracciones y lugares de interés, Monumentos y lugares de interés","2019-10-12"
"Mall Vivo el Centro","3,5","72 opiniones","https://www.tripadvisor.cl/Attraction_Review-g294305-d7726313-Reviews-Mall_Vivo_El_Centro-Santiago_Santiago_Metropolitan_Region.html","desde $56.318 ,desde $158.123 ,desde $288.809 ,desde $22.144 ","Puente, 689, Santiago","-33.43516529027709","-70.65149990277091","41","29","3","NA","1","1","NA","NA","NA","NA","Compras, Centros comerciales","2019-10-12"
"Paseo Huerfanos 1400","3,5","158 opiniones","https://www.tripadvisor.cl/Attraction_Review-g294305-d314502-Reviews-Paseo_Huerfanos_1400-Santiago_Santiago_Metropolitan_Region.html","desde $27.437 ,desde $18.051 ,desde $10.108 ,desde $16.606 ","NA","-22.138976121999974","17.22149898400005","79","72","11","NA","4","1","NA","NA","1","NA","Atracciones y lugares de interés, Monumentos y lugares de interés","2019-10-12"
"Jardín Botánico Mapulemu","4,0","24 opiniones","https://www.tripadvisor.cl/Attraction_Review-g294305-d7687461-Reviews-Jardin_Botanico_Mapulemu-Santiago_Santiago_Metropolitan_Region.html","desde $22.144 ,desde $4.982 ,desde $71.480 ,desde $21.588 ","NA","-22.138976121999974","17.22149898400005","15","9","3","NA","NA","NA","NA","NA","NA","NA","Naturaleza y parques, Jardines","2019-10-12"
"Parque Bustamante","4,0","74 opiniones","https://www.tripadvisor.cl/Attraction_Review-g294305-d6902887-Reviews-Parque_Bustamante-Santiago_Santiago_Metropolitan_Region.html","desde $53.430 ,desde $29.603 ","General J. A. Bustamante, Ramon Carnicer, Santiago","-33.444669999999974","-70.62952999999999","51","20","10","NA","NA","2","NA","NA","1","NA","Actividades al aire libre, Naturaleza y parques, Parques, Pistas para trotar o correr Más","2019-10-12"
"Capilla Medalla Milagrosa Virgen De Los Rayos","5,0","8 opiniones","https://www.tripadvisor.cl/Attraction_Review-g294305-d10383931-Reviews-Capilla_Medalla_Milagrosa_Virgen_De_Los_Rayos-Santiago_Santiago_Metropolitan_Reg.html","desde $27.437 ,desde $18.051 ,desde $10.108 ,desde $16.606 ","Calle Venecia 1640, Santiago","-33.40791940608207","-70.66333105842803","8","NA","NA","NA","NA","NA","NA","NA","NA","NA","Atracciones y lugares de interés, Iglesias y catedrales","2019-10-12"
"Museo de Ciencia y Tecnología","3,5","61 opiniones","https://www.tripadvisor.cl/Attraction_Review-g294305-d3390101-Reviews-Museo_de_Ciencia_y_Tecnologia-Santiago_Santiago_Metropolitan_Region.html","desde $10.108 ,desde $10.108 ,desde $140.794 ,desde $15.884 ","Interior Parque Quinta Normal, Santiago","-33.44393999999994","-70.68417999999997","27","32","7","NA","NA","1","NA","NA","NA","NA","Museos, Museos especializados","2019-10-12"
"Plaza Baquedano (Plaza Italia)","4,0","98 opiniones","https://www.tripadvisor.cl/Attraction_Review-g294305-d7726003-Reviews-Plaza_Baquedano_Plaza_Italia-Santiago_Santiago_Metropolitan_Region.html","desde $60.650 ,desde $42.599 ,desde $108.303 ","Plaza Baquedano, Santiago","-33.43700999999993","-70.63438999999994","41","47","9","1","2","1","NA","NA","2","NA","Atracciones y lugares de interés, Monumentos y lugares de interés","2019-10-12"
"Parque Bicentenario de Cerrillos","4,5","5 opiniones","https://www.tripadvisor.cl/Attraction_Review-g294305-d13188306-Reviews-Parque_Bicentenario_de_Cerrillos-Santiago_Santiago_Metropolitan_Region.html","desde $21.588 ,desde $78.700 ,desde $90.325 ,desde $51.986 ","Pedro Aguirre Cerda 6100, Santiago","-33.36273996010107","-70.63592030614426","5","NA","NA","NA","NA","NA","NA","NA","NA","NA","Naturaleza y parques, Parques","2019-10-12"
"Estadio Santa Laura","4,0","32 opiniones","https://www.tripadvisor.cl/Attraction_Review-g294305-d7951488-Reviews-Estadio_Santa_Laura-Santiago_Santiago_Metropolitan_Region.html","desde $22.144 ,desde $72.924 ,desde $32.491 ,desde $32.491 ","Julio Martiner 1241, Santiago","-33.405365928055446","-70.65772268287324","29","2","1","NA","NA","1","NA","NA","NA","NA","Diversión y juegos, Complejos deportivos","2019-10-12"
"Mall Vivo Imperio","4,5","6 opiniones","https://www.tripadvisor.cl/Attraction_Review-g294305-d13455131-Reviews-Mall_Vivo_Imperio-Santiago_Santiago_Metropolitan_Region.html","desde $56.318 ,desde $158.123 ,desde $288.809 ,desde $22.144 ","Huérfanos 830, Santiago","-33.43946235613026","-70.64849400917413","5","1","NA","NA","NA","NA","NA","NA","NA","NA","Compras, Centros comerciales","2019-10-12"
"Teatro Nescafé de las Artes","4,0","72 opiniones","https://www.tripadvisor.cl/Attraction_Review-g294305-d7133414-Reviews-Teatro_Nescafe_de_Las_Artes-Santiago_Santiago_Metropolitan_Region.html","desde $27.437 ,desde $18.051 ,desde $10.108 ,desde $16.606 ","Avenida Manuel Montt 32, Santiago","-33.428595981129874","-70.62055437261235","68","3","3","NA","NA","NA","NA","NA","NA","NA","Atracciones y lugares de interés, Monumentos y lugares de interés","2019-10-12"
"Alameda","3,5","163 opiniones","https://www.tripadvisor.cl/Attraction_Review-g294305-d318174-Reviews-Alameda-Santiago_Santiago_Metropolitan_Region.html","desde $121.300 ,desde $90.253 ","NA","-22.138976121999974","17.22149898400005","98","56","12","1","1","1","NA","NA","2","NA","Atracciones y lugares de interés, Monumentos y lugares de interés","2019-10-12"
"Portal Lyon","3,5","35 opiniones","https://www.tripadvisor.cl/Attraction_Review-g294305-d7726317-Reviews-Portal_Lyon-Santiago_Santiago_Metropolitan_Region.html","desde $56.318 ,desde $158.123 ,desde $288.809 ,desde $22.144 ","Avenida Providencia, 2198, Santiago","-33.42189246987714","-70.61010597475322","23","10","NA","NA","NA","NA","NA","NA","NA","2","Compras, Centros comerciales","2019-10-12"
"Nuestra Senora de la Divina Providencia","4,0","30 opiniones","https://www.tripadvisor.cl/Attraction_Review-g294305-d7726591-Reviews-Nuestra_Senora_de_la_Divina_Providencia-Santiago_Santiago_Metropolitan_Region.html","desde $27.437 ,desde $18.051 ,desde $10.108 ,desde $16.606 ","Ave Providencia 1619, Santiago","-33.42737305995725","-70.61667509602405","19","10","3","NA","NA","NA","NA","NA","NA","NA","Atracciones y lugares de interés, Iglesias y catedrales","2019-10-12"
"Altos de Cantillana","4,0","18 opiniones","https://www.tripadvisor.cl/Attraction_Review-g294305-d3470102-Reviews-Altos_de_Cantillana-Santiago_Santiago_Metropolitan_Region.html","desde $21.588 ,desde $78.700 ,desde $90.325 ,desde $51.986 ","O´Higgins, Santiago","-33.59367993060762","-70.70721005496554","15","2","NA","NA","NA","1","NA","NA","NA","NA","Naturaleza y parques, Parques nacionales","2019-10-12"
"Anfiteatro Pablo Neruda","4,5","6 opiniones","https://www.tripadvisor.cl/Attraction_Review-g294305-d12834039-Reviews-Anfiteatro_Pablo_Neruda-Santiago_Santiago_Metropolitan_Region.html","desde $27.437 ,desde $18.051 ,desde $10.108 ,desde $16.606 ","Cerro de San Cristobal, Santiago","-33.423629999999946","-70.63401999999996","3","NA","NA","1","1","1","NA","NA","NA","NA","Atracciones y lugares de interés, Miradores, Monumentos y lugares de interés","2019-10-12"
"Franklin-San Diego","4,0","29 opiniones","https://www.tripadvisor.cl/Attraction_Review-g294305-d7726283-Reviews-Franklin_San_Diego-Santiago_Santiago_Metropolitan_Region.html","desde $56.318 ,desde $158.123 ,desde $288.809 ,desde $22.144 ","San Diego, 2080, Santiago","-33.473523933874695","-70.64827501363987","28","NA","2","NA","NA","NA","NA","NA","NA","NA","Compras, Centros comerciales","2019-10-12"
"Museo Interactivo Audiovisual","4,5","32 opiniones","https://www.tripadvisor.cl/Attraction_Review-g294305-d8775981-Reviews-Museo_Interactivo_Audiovisual-Santiago_Santiago_Metropolitan_Region.html","desde $10.108 ,desde $10.108 ,desde $140.794 ,desde $15.884 ","Isidora Goyenechea 3400 Las Condes, Santiago","-33.41435995393739","-70.59519803059477","26","6","4","NA","NA","NA","NA","NA","NA","NA","Museos, Museos de historia, Museos para niños","2019-10-12"
"Museo Numismatico, Banco Central de Chile","4,0","35 opiniones","https://www.tripadvisor.cl/Attraction_Review-g294305-d6726553-Reviews-Museo_Numismatico_Banco_Central_de_Chile-Santiago_Santiago_Metropolitan_Region.html","desde $10.108 ,desde $10.108 ,desde $140.794 ,desde $15.884 ","Agustinas 1180, Santiago","-33.44111896203105","-70.65343546596264","11","23","1","1","NA","NA","NA","NA","NA","NA","Museos, Museos especializados","2019-10-12"
"Iglesia de Santo Domingo","4,0","74 opiniones","https://www.tripadvisor.cl/Attraction_Review-g294305-d4504642-Reviews-Iglesia_de_Santo_Domingo-Santiago_Santiago_Metropolitan_Region.html","desde $27.437 ,desde $18.051 ,desde $10.108 ,desde $16.606 ","Santo Domingo 961, Santiago","-33.58322342763877","-70.70624179615405","38","30","13","NA","1","2","NA","NA","NA","2","Atracciones y lugares de interés, Iglesias y catedrales, Monumentos y lugares de interés","2019-10-12"
"Casa de Adoración Bahá’í de Sudamérica","4,5","20 opiniones","https://www.tripadvisor.cl/Attraction_Review-g294305-d11866517-Reviews-Casa_de_Adoracion_Baha_i_de_Sudamerica-Santiago_Santiago_Metropolitan_Region.html","desde $27.437 ,desde $18.051 ,desde $10.108 ,desde $16.606 ","Diagonal Las Torres 2000, Santiago","-33.45802262367376","-70.73139993153369","17","3","3","NA","NA","NA","NA","NA","NA","NA","Atracciones y lugares de interés, Lugares religiosos y sagrados","2019-10-12"
"Estatua de Condorito","3,5","27 opiniones","https://www.tripadvisor.cl/Attraction_Review-g294305-d5042776-Reviews-Estatua_de_Condorito-Santiago_Santiago_Metropolitan_Region.html","desde $27.437 ,desde $18.051 ,desde $10.108 ,desde $16.606 ","Salida Estacion San Miguel, Santiago","-33.48574999999994","-70.64993999999996","25","2","1","NA","NA","NA","NA","NA","NA","NA","Atracciones y lugares de interés, Monumentos y lugares de interés","2019-10-12"
"Paseo Bandera","4,0","16 opiniones","https://www.tripadvisor.cl/Attraction_Review-g294305-d16879791-Reviews-Paseo_Bandera-Santiago_Santiago_Metropolitan_Region.html","desde $27.437 ,desde $43.321 ,desde $14.928 ,desde $64.260 ","Bandera 100, Santiago","-33.27851031893151","-70.89100176096363","4","11","2","NA","NA","NA","NA","NA","NA","NA","Atracciones y lugares de interés, Áreas peatonales pintorescas","2019-10-12"
"Exposicion de Automoviles Antiguos Jedimar","4,0","23 opiniones","https://www.tripadvisor.cl/Attraction_Review-g294305-d5503760-Reviews-Exposicion_de_Automoviles_Antiguos_Jedimar-Santiago_Santiago_Metropolitan_Region.html","desde $10.108 ,desde $10.108 ,desde $140.794 ,desde $15.884 ","San Francisco de Borja 1240, Santiago","-33.46514901493085","-70.68116126574043","18","2","5","1","1","NA","NA","NA","NA","NA","Museos, Museos especializados","2019-10-12"
"Plaza Brasil","4,0","44 opiniones","https://www.tripadvisor.cl/Attraction_Review-g294305-d8122174-Reviews-Plaza_Brasil-Santiago_Santiago_Metropolitan_Region.html","desde $64.982 ,desde $69.805 ,desde $6.137 ","Avenida Brasil, Santiago","-33.43565269378308","-70.6648706088514","22","18","4","NA","NA","1","NA","1","NA","1","Atracciones y lugares de interés, Monumentos y lugares de interés","2019-10-12"
"Hacienda Santa Martina Nature Club & Golf","4,0","16 opiniones","https://www.tripadvisor.cl/Attraction_Review-g294305-d11662514-Reviews-Hacienda_Santa_Martina_Nature_Club_Golf-Santiago_Santiago_Metropolitan_Region.html","desde $21.588 ,desde $78.700 ,desde $90.325 ,desde $51.986 ","Camino Santa Martina S/N, Santiago","-33.30752904544851","-70.54202574998894","15","NA","2","NA","1","NA","NA","NA","NA","NA","Actividades al aire libre, Playa y clubes con piscina","2019-10-12"
"Comunidad ecológica de Peñalolén","4,5","9 opiniones","https://www.tripadvisor.cl/Attraction_Review-g294305-d9461265-Reviews-Comunidad_Ecologica_de_Penalolen-Santiago_Santiago_Metropolitan_Region.html","desde $4.982 ,desde $71.480 ,desde $22.144 ,desde $21.588 ","Antupirén 9401, Santiago","-33.483250274464666","-70.53448124175941","9","NA","NA","NA","NA","NA","NA","NA","NA","NA","Naturaleza y parques, Parques estatales, Parques","2019-10-12"
"Palacio Fallabella","4,5","18 opiniones","https://www.tripadvisor.cl/Attraction_Review-g294305-d8563582-Reviews-Palacio_Fallabella-Santiago_Santiago_Metropolitan_Region.html","desde $27.437 ,desde $18.051 ,desde $10.108 ,desde $16.606 ","Pedro de Valdivia 963, Santiago","-33.43198313488948","-70.60937112337695","11","7","1","NA","NA","NA","NA","NA","NA","NA","Atracciones y lugares de interés, Monumentos y lugares de interés, Lugares históricos, Edificios con valor arquitectónico Más","2019-10-12"
"Liz Caskey Culinary & Wine Experiences","5,0","71 opiniones","https://www.tripadvisor.cl/Attraction_Review-g294305-d1596736-Reviews-Liz_Caskey_Culinary_Wine_Experiences-Santiago_Santiago_Metropolitan_Region.html","desde $39.639 ,desde $71.480 ,desde $90.325 ,desde $34.433 ","NA","-22.138976121999974","17.22149898400005","60","NA","69","NA","NA","NA","NA","NA","NA","NA","Comida y bebida, Bodegas y viñedos","2019-10-12"
"El Colorado Centro de Ski","4,0","64 opiniones","https://www.tripadvisor.cl/Attraction_Review-g294305-d10434940-Reviews-El_Colorado_Centro_de_Ski-Santiago_Santiago_Metropolitan_Region.html","desde $21.588 ,desde $78.700 ,desde $90.325 ,desde $51.986 ","Farellones, Santiago","-33.352089999999976","-70.31006999999994","30","33","4","NA","NA","NA","NA","NA","NA","NA","Actividades al aire libre, Naturaleza y parques, Áreas para esquiar y practicar snowboard","2019-10-12"
"Mall Vivo Los Trapenses","3,5","47 opiniones","https://www.tripadvisor.cl/Attraction_Review-g294305-d7703538-Reviews-Mall_Vivo_Los_Trapenses-Santiago_Santiago_Metropolitan_Region.html","desde $56.318 ,desde $158.123 ,desde $288.809 ,desde $22.144 ","Av. Jose Alcade Delano N° 10.492, Santiago","-33.36430960199082","-70.54467104854764","42","NA","5","NA","1","1","NA","NA","NA","NA","Compras, Centros comerciales","2019-10-12"
"Mall Plaza Alameda","3,5","53 opiniones","https://www.tripadvisor.cl/Attraction_Review-g294305-d7726309-Reviews-Mall_Plaza_Alameda-Santiago_Santiago_Metropolitan_Region.html","desde $56.318 ,desde $158.123 ,desde $288.809 ,desde $22.144 ","Avenida Libertador Bernardo O'Higgins, 3470, Santiago","-33.45223254995475","-70.68306878100815","37","15","2","NA","NA","NA","NA","NA","NA","1","Compras, Centros comerciales","2019-10-12"
"Viña Almaviva","4,5","40 opiniones","https://www.tripadvisor.cl/Attraction_Review-g294305-d6378934-Reviews-Vina_Almaviva-Santiago_Santiago_Metropolitan_Region.html","desde $21.588 ,desde $4.982 ,desde $15.162 ,desde $14.440 ","Calle Sta Rosa 821, Santiago","-33.26526419980049","-70.75383101195095","7","30","8","NA","NA","NA","NA","NA","NA","NA","Comida y bebida, Bodegas y viñedos","2019-10-12"
"Paseo de las Esculturas","4,0","56 opiniones","https://www.tripadvisor.cl/Attraction_Review-g294305-d4587818-Reviews-Paseo_de_las_Esculturas-Santiago_Santiago_Metropolitan_Region.html","desde $27.437 ,desde $18.051 ,desde $10.108 ,desde $16.606 ","La Pastora, zwischen Goyenochea und Apoquinda, Santiago","10.089290000000062","-69.34479999999996","24","30","2","NA","1","1","NA","NA","NA","NA","Atracciones y lugares de interés, Monumentos y lugares de interés","2019-10-12"
"Acuario de Santiago","3,0","25 opiniones","https://www.tripadvisor.cl/Attraction_Review-g294305-d4605814-Reviews-Acuario_de_Santiago-Santiago_Santiago_Metropolitan_Region.html","desde $4.513 ,desde $3.610 ,desde $144.404 ,desde $71.480 ","Avenida Matta 1860, Santiago","-33.365857651782214","-70.70726138366646","22","3","NA","NA","NA","NA","NA","NA","NA","NA","Zoológicos y acuarios, Naturaleza y parques, Acuarios, Áreas de naturaleza y vida silvestre Más","2019-10-12"
"Cerro Chicauma","4,5","6 opiniones","https://www.tripadvisor.cl/Attraction_Review-g294305-d8870431-Reviews-Cerro_Chicauma-Santiago_Santiago_Metropolitan_Region.html","desde $21.588 ,desde $78.700 ,desde $90.325 ,desde $51.986 ","NA","-22.138976121999974","17.22149898400005","6","NA","NA","NA","NA","NA","NA","NA","NA","NA","Naturaleza y parques, Formaciones geológicas","2019-10-12"
"Granja Aventura","3,0","32 opiniones","https://www.tripadvisor.cl/Attraction_Review-g294305-d6598436-Reviews-Granja_Aventura-Santiago_Santiago_Metropolitan_Region.html","desde $21.588 ,desde $3.610 ,desde $4.982 ,desde $71.480 ","Av. Larrain 11095. La Reina, Santiago","-33.45065099999999","-70.54798274999999","32","NA","2","NA","NA","NA","NA","NA","NA","NA","Naturaleza y parques, Actividades al aire libre, Zoológicos y acuarios","2019-10-12"
"Iglesia de la Vera Cruz","4,0","34 opiniones","https://www.tripadvisor.cl/Attraction_Review-g294305-d5539958-Reviews-Iglesia_de_la_Vera_Cruz-Santiago_Santiago_Metropolitan_Region.html","desde $27.437 ,desde $18.051 ,desde $10.108 ,desde $16.606 ","José Victorino Lastarria 102-124, Santiago","-33.4395999171208","-70.64123034208664","17","14","4","NA","1","NA","NA","NA","NA","NA","Atracciones y lugares de interés, Iglesias y catedrales","2019-10-12"
"Museo de la Solidaridad Salvador Allende","4,0","47 opiniones","https://www.tripadvisor.cl/Attraction_Review-g294305-d600526-Reviews-Museo_de_la_Solidaridad_Salvador_Allende-Santiago_Santiago_Metropolitan_Region.html","desde $10.108 ,desde $10.108 ,desde $140.794 ,desde $15.884 ","Av. República 475, Santiago","-33.45412142714524","-70.66719173855958","29","12","10","2","NA","2","NA","NA","NA","NA","Museos, Museos de arte","2019-10-12"
"Museo Colchagua","4,5","35 opiniones","https://www.tripadvisor.cl/Attraction_Review-g294305-d8673010-Reviews-Museo_Colchagua-Santiago_Santiago_Metropolitan_Region.html","desde $10.108 ,desde $10.108 ,desde $140.794 ,desde $15.884 ","Av. Errázuriz 145, Santiago","-33.500452215444355","-70.71176583034398","26","9","3","NA","NA","NA","NA","NA","NA","NA","Museos, Museos especializados, Museos de historia natural, Museos de historia Más","2019-10-12"
"Galeria Zona Franca","3,5","10 opiniones","https://www.tripadvisor.cl/Attraction_Review-g294305-d10496556-Reviews-Galeria_Zona_Franca-Santiago_Santiago_Metropolitan_Region.html","desde $56.318 ,desde $158.123 ,desde $288.809 ,desde $22.144 ","Av. Providencia Nº 2251, Santiago","-33.421297923682786","-70.60897646557797","7","3","1","NA","NA","NA","NA","NA","NA","NA","Compras, Centros comerciales","2019-10-12"
"Aviarium Chicureo","4,5","8 opiniones","https://www.tripadvisor.cl/Attraction_Review-g294305-d12123032-Reviews-Aviarium_Chicureo-Santiago_Santiago_Metropolitan_Region.html","desde $21.588 ,desde $3.610 ,desde $71.480 ,desde $4.982 ","El Alba I Parcela 16, Santiago","-33.29575318192936","-70.68281729569856","8","NA","NA","NA","NA","NA","NA","NA","NA","NA","Zoológicos y acuarios, Naturaleza y parques, Actividades al aire libre","2019-10-12"
"Caupolicán","4,0","32 opiniones","https://www.tripadvisor.cl/Attraction_Review-g294305-d7732205-Reviews-Caupolican-Santiago_Santiago_Metropolitan_Region.html","desde $55.841 ,desde $84.477 ,desde $108.303 ,desde $94.513 ","San Diego 850, Santiago","-33.45604378816432","-70.64970389567198","29","2","2","NA","NA","1","NA","NA","NA","NA","Conciertos y espectáculos, Teatros","2019-10-12"
"Teatro Pata de Cabra","5,0","5 opiniones","https://www.tripadvisor.cl/Attraction_Review-g294305-d12567805-Reviews-Teatro_Pata_de_Cabra-Santiago_Santiago_Metropolitan_Region.html","desde $55.841 ,desde $84.477 ,desde $108.303 ,desde $94.513 ","Bombero Nuñez 312, Santiago","-33.43024676380635","-70.63940712031852","5","NA","NA","NA","NA","NA","NA","NA","NA","NA","Conciertos y espectáculos, Teatros","2019-10-12"
"Portal La Reina","3,5","43 opiniones","https://www.tripadvisor.cl/Attraction_Review-g294305-d7726324-Reviews-Portal_la_Reina-Santiago_Santiago_Metropolitan_Region.html","desde $56.318 ,desde $158.123 ,desde $288.809 ,desde $22.144 ","Avenida Francisco Bilbao, 8750, Santiago","-33.42872469859635","-70.54071974002972","42","NA","NA","NA","NA","NA","NA","NA","NA","NA","Compras, Centros comerciales","2019-10-12"
"Cervecería SpoH","5,0","5 opiniones","https://www.tripadvisor.cl/Attraction_Review-g294305-d13509182-Reviews-Cerveceria_SpoH-Santiago_Santiago_Metropolitan_Region.html","desde $39.639 ,desde $71.480 ,desde $90.325 ,desde $34.433 ","Roberto Espinoza 1456, Santiago","-33.46534444823706","-70.65177801428248","4","1","1","NA","NA","NA","NA","NA","NA","NA","Comida y bebida, Cervecerías","2019-10-12"
"Parques de Farellones","4,0","38 opiniones","https://www.tripadvisor.cl/Attraction_Review-g294305-d12788471-Reviews-Parques_de_Farellones-Santiago_Santiago_Metropolitan_Region.html","desde $21.588 ,desde $78.700 ,desde $90.325 ,desde $51.986 ","NA","-22.138976121999974","17.22149898400005","9","29","2","NA","NA","NA","NA","NA","NA","NA","Actividades al aire libre, Naturaleza y parques, Áreas para esquiar y practicar snowboard","2019-10-12"
"Mall Paseo Arauco Estación","3,5","34 opiniones","https://www.tripadvisor.cl/Attraction_Review-g294305-d7726312-Reviews-Mall_Paseo_Arauco_Estacion-Santiago_Santiago_Metropolitan_Region.html","desde $56.318 ,desde $158.123 ,desde $288.809 ,desde $22.144 ","Avenida Libertador Bernardo O'Higgins, 3250, Santiago","-33.451061172946844","-70.67954368997064","28","6","1","NA","NA","NA","NA","NA","NA","NA","Compras, Centros comerciales","2019-10-12"
"Mercado Mastica","4,0","13 opiniones","https://www.tripadvisor.cl/Attraction_Review-g294305-d10431652-Reviews-Mercado_Mastica-Santiago_Santiago_Metropolitan_Region.html","desde $56.318 ,desde $158.123 ,desde $288.809 ,desde $22.144 ","Av. Bicentenario 3800, Santiago","-33.39917042408681","-70.60107427869441","11","2","2","NA","NA","NA","NA","NA","NA","NA","Compras, Mercados de las pulgas y al aire libre","2019-10-12"
"Museo de Bomberos de Santiago","4,5","8 opiniones","https://www.tripadvisor.cl/Attraction_Review-g294305-d13812098-Reviews-Museo_de_Bomberos_de_Santiago-Santiago_Santiago_Metropolitan_Region.html","desde $10.108 ,desde $10.108 ,desde $140.794 ,desde $15.884 ","Santo Domingo 978, Santiago","-33.58299950710179","-70.70649225762068","7","1","4","NA","NA","NA","NA","NA","NA","NA","Museos, Museos de historia, Museos para niños, Museos especializados Más","2019-10-12"
"Basílica de Lourdes","4,0","29 opiniones","https://www.tripadvisor.cl/Attraction_Review-g294305-d3946647-Reviews-Basilica_de_Lourdes-Santiago_Santiago_Metropolitan_Region.html","desde $27.437 ,desde $18.051 ,desde $10.108 ,desde $16.606 ","Lourdes 645, Santiago","-33.43840912461769","-70.68655525561202","17","11","1","NA","NA","NA","NA","NA","NA","NA","Atracciones y lugares de interés, Iglesias y catedrales, Lugares religiosos y sagrados","2019-10-12"
"Universidad de Chile","4,0","83 opiniones","https://www.tripadvisor.cl/Attraction_Review-g294305-d6882108-Reviews-Universidad_de_Chile-Santiago_Santiago_Metropolitan_Region.html","desde $31.047 ,desde $90.253 ","Avenida Libertador Bernardo o'Higgins 1058, Santiago","-33.66377718096826","-70.92836153996194","39","37","9","NA","NA","1","NA","NA","1","2","Atracciones y lugares de interés, Monumentos y lugares de interés","2019-10-12"
"Templo Maternidad de María","4,5","61 opiniones","https://www.tripadvisor.cl/Attraction_Review-g294305-d7348749-Reviews-Templo_Maternidad_de_Maria-Santiago_Santiago_Metropolitan_Region.html","desde $27.437 ,desde $18.051 ,desde $10.108 ,desde $16.606 ","Avenida Pedro Bannen, Santiago","-33.416515738045746","-70.62371130977125","24","35","5","NA","1","NA","NA","NA","1","NA","Atracciones y lugares de interés, Monumentos y lugares de interés","2019-10-12"
"Espacio Nacional de Diseño E.N.D","5,0","12 opiniones","https://www.tripadvisor.cl/Attraction_Review-g294305-d12624226-Reviews-E_N_D_Espacio_Nacional_de_Diseno-Santiago_Santiago_Metropolitan_Region.html","desde $10.108 ,desde $56.318 ,desde $158.123 ,desde $10.108 ","Av. Libertador Bernardo O'Higgins 227, Santiago","-33.35825557507646","-70.72934485763736","11","NA","2","NA","NA","NA","NA","NA","NA","NA","Museos, Compras, Galerías de arte","2019-10-12"
"Monasterio Benedictino de Las Condes","5,0","6 opiniones","https://www.tripadvisor.cl/Attraction_Review-g294305-d11609686-Reviews-Monasterio_Benedictino_de_Las_Condes-Santiago_Santiago_Metropolitan_Region.html","desde $27.437 ,desde $18.051 ,desde $10.108 ,desde $16.606 ","Montecassino 960 Las Condes, Santiago","-33.38592342499792","-70.51692788188257","6","NA","NA","NA","NA","NA","NA","NA","NA","NA","Atracciones y lugares de interés, Iglesias y catedrales","2019-10-12"
"Alejandro Pacareu Galería de Arte El Bosque","5,0","10 opiniones","https://www.tripadvisor.cl/Attraction_Review-g294305-d7733596-Reviews-Alejandro_Pacareu_Galeria_de_Arte_El_Bosque-Santiago_Santiago_Metropolitan_Region.html","desde $10.108 ,desde $56.318 ,desde $158.123 ,desde $10.108 ","San Sebastián 2837, Santiago","-33.415536292188484","-70.60110083854256","9","1","NA","NA","NA","NA","NA","NA","NA","NA","Compras, Museos, Galerías de arte","2019-10-12"
"Mall Plaza Tobalaba","3,5","22 opiniones","https://www.tripadvisor.cl/Attraction_Review-g294305-d8621142-Reviews-Mall_Plaza_Tobalaba-Santiago_Santiago_Metropolitan_Region.html","desde $56.318 ,desde $158.123 ,desde $288.809 ,desde $22.144 ","Camilo Henriquez, Santiago","-33.52179999560084","-70.75656","20","2","1","NA","NA","NA","NA","NA","NA","NA","Compras, Centros comerciales","2019-10-12"
"Oficina de Turismo Plaza de Armas de Santiago","4,5","20 opiniones","https://www.tripadvisor.cl/Attraction_Review-g294305-d7974467-Reviews-Oficina_de_Turismo_Plaza_de_Armas_de_Santiago-Santiago_Santiago_Metropolitan_Regi.html","desde $22.144 ,desde $72.924 ,desde $32.491 ,desde $32.491 ","Plaza de Armas s/n, Santiago","-33.43851999999998","-70.65122999999994","11","6","1","NA","NA","NA","NA","NA","1","NA","Recursos para viajeros, Centros de información turística","2019-10-12"
"Iglesia San Francisco de Borja","4,0","32 opiniones","https://www.tripadvisor.cl/Attraction_Review-g294305-d5324695-Reviews-Iglesia_San_Francisco_de_Borja-Santiago_Santiago_Metropolitan_Region.html","desde $27.437 ,desde $18.051 ,desde $10.108 ,desde $16.606 ","Calle Carabinieros de Chile / Parque San Borja, Santiago","-33.439351516274655","-70.63753501627464","13","16","5","NA","1","NA","NA","1","NA","NA","Atracciones y lugares de interés, Iglesias y catedrales","2019-10-12"
"Museo Arqueológico de Santiago","4,0","14 opiniones","https://www.tripadvisor.cl/Attraction_Review-g294305-d7680128-Reviews-MAS_Museo_Arqueologica_de_Santiago-Santiago_Santiago_Metropolitan_Region.html","desde $10.108 ,desde $10.108 ,desde $140.794 ,desde $15.884 ","José Victorino Lastarria 307, Santiago","-33.43769811201415","-70.6409744430491","11","3","4","NA","NA","NA","NA","NA","NA","NA","Museos, Museos especializados","2019-10-12"
"Parque Metropolitano Sur","4,5","6 opiniones","https://www.tripadvisor.cl/Attraction_Review-g294305-d11813967-Reviews-Parque_Metropolitano_Sur-Santiago_Santiago_Metropolitan_Region.html","desde $21.588 ,desde $78.700 ,desde $90.325 ,desde $51.986 ","Ruta 5 Sur, San Bernardo, Santiago","-33.690628049913094","-70.7252364096022","6","NA","NA","NA","NA","NA","NA","NA","NA","NA","Naturaleza y parques, Parques","2019-10-12"
"Teatro Oriente","4,0","20 opiniones","https://www.tripadvisor.cl/Attraction_Review-g294305-d7732219-Reviews-Teatro_Oriente-Santiago_Santiago_Metropolitan_Region.html","desde $55.841 ,desde $84.477 ,desde $108.303 ,desde $94.513 ","Avenida Pedro de Valdivia 99, Santiago","-33.424494191788305","-70.61208905496558","16","4","NA","NA","NA","NA","NA","NA","NA","NA","Conciertos y espectáculos, Teatros","2019-10-12"
"Iglesia San Ignacio de Loyola","4,5","31 opiniones","https://www.tripadvisor.cl/Attraction_Review-g294305-d6023523-Reviews-Iglesia_San_Ignacio_de_Loyola-Santiago_Santiago_Metropolitan_Region.html","desde $27.437 ,desde $18.051 ,desde $10.108 ,desde $16.606 ","Padre Alonso de Ovalle 1494, Santiago","-33.447063310577626","-70.6568556217035","16","11","2","NA","NA","1","NA","NA","1","NA","Atracciones y lugares de interés, Iglesias y catedrales","2019-10-12"
"Espacio Urbano Gran Avenida","3,5","23 opiniones","https://www.tripadvisor.cl/Attraction_Review-g294305-d7726282-Reviews-Espacio_Urbano_Gran_Avenida-Santiago_Santiago_Metropolitan_Region.html","desde $56.318 ,desde $158.123 ,desde $288.809 ,desde $22.144 ","Gran Avenida José Miguel Carrera, 6150, Santiago","-33.512862801815324","-70.65742760661135","23","NA","NA","NA","NA","NA","NA","NA","NA","NA","Compras, Centros comerciales","2019-10-12"
"Estadio Bicentenario La Florida","4,0","16 opiniones","https://www.tripadvisor.cl/Attraction_Review-g294305-d8150860-Reviews-Estadio_Bicentenario_La_Florida-Santiago_Santiago_Metropolitan_Region.html","desde $27.437 ,desde $18.051 ,desde $10.108 ,desde $16.606 ","Enrique Olivares 1003, Santiago","-33.53983190614121","-70.57738831188306","15","1","NA","NA","NA","NA","NA","NA","NA","NA","Atracciones y lugares de interés, Campos de juego y estadios","2019-10-12"
"Centro de las Artes 660","4,5","38 opiniones","https://www.tripadvisor.cl/Attraction_Review-g294305-d7000895-Reviews-Centro_de_las_Artes_660-Santiago_Santiago_Metropolitan_Region.html","desde $27.437 ,desde $18.051 ,desde $10.108 ,desde $16.606 ","Rosario Norte 660, Las Condes, Santiago","-33.40398593956758","-70.57337440742478","28","9","NA","NA","1","NA","NA","NA","NA","NA","Atracciones y lugares de interés, Monumentos y lugares de interés","2019-10-12"
"Tourism Office","4,5","12 opiniones","https://www.tripadvisor.cl/Attraction_Review-g294305-d2529604-Reviews-Tourism_Office-Santiago_Santiago_Metropolitan_Region.html","desde $22.144 ,desde $72.924 ,desde $32.491 ,desde $32.491 ","Av Santa Rosa 12975, Santiago","-33.58554701564983","-70.62878350980962","5","5","4","1","NA","NA","NA","NA","NA","NA","Recursos para viajeros, Centros de información turística","2019-10-12"
"Urbn Stgo","4,5","79 opiniones","https://www.tripadvisor.cl/Attraction_Review-g294305-d4366777-Reviews-Urbn_Stgo-Santiago_Santiago_Metropolitan_Region.html","desde $27.437 ,desde $18.051 ,desde $10.108 ,desde $16.606 ","Monjitas 578, Santiago","-33.436741285042395","-70.64539803497028","47","28","19","1","NA","NA","NA","NA","2","1","Atracciones y lugares de interés, Monumentos y lugares de interés","2019-10-12"
"Iglesia de Los Santos Angeles Custodios","4,0","8 opiniones","https://www.tripadvisor.cl/Attraction_Review-g294305-d7726331-Reviews-Iglesia_de_Los_Santos_Angeles_Custodios-Santiago_Santiago_Metropolitan_Region.html","desde $27.437 ,desde $18.051 ,desde $10.108 ,desde $16.606 ","Avenida Providencia, 251, Santiago","-33.43586120062361","-70.63015410674457","7","NA","2","NA","1","NA","NA","NA","NA","NA","Atracciones y lugares de interés, Iglesias y catedrales","2019-10-12"
"Plaza Libertad de Prensa","5,0","5 opiniones","https://www.tripadvisor.cl/Attraction_Review-g294305-d12594942-Reviews-Plaza_Libertad_de_Prensa-Santiago_Santiago_Metropolitan_Region.html","desde $27.437 ,desde $18.051 ,desde $10.108 ,desde $16.606 ","Concha y Toro 33, Santiago","-33.44575950513589","-70.66575117346645","5","NA","NA","NA","NA","NA","NA","NA","NA","NA","Atracciones y lugares de interés, Monumentos y lugares de interés","2019-10-12"
"Supermercado Diez","4,5","7 opiniones","https://www.tripadvisor.cl/Attraction_Review-g294305-d15272865-Reviews-Supermercado_Diez-Santiago_Santiago_Metropolitan_Region.html","desde $56.318 ,desde $158.123 ,desde $288.809 ,desde $22.144 ","Los Conquistadores, 2230, Santiago","-33.417753758526224","-70.61395932612952","NA","7","NA","NA","NA","NA","NA","NA","NA","NA","Compras, Tiendas de fábricas","2019-10-12"
"Centro Turistico Rocas del Padre","4,0","5 opiniones","https://www.tripadvisor.cl/Attraction_Review-g294305-d7398393-Reviews-Centro_Turistico_Rocas_del_Padre-Santiago_Santiago_Metropolitan_Region.html","desde $21.588 ,desde $78.700 ,desde $90.325 ,desde $51.986 ","Ramon Subercaseaux s/n, Santiago","-33.48454875093007","-70.65352050826466","5","NA","NA","NA","NA","NA","NA","NA","NA","NA","Naturaleza y parques, Áreas de naturaleza y vida silvestre","2019-10-12"
"Iglesia Santa Ana","4,0","19 opiniones","https://www.tripadvisor.cl/Attraction_Review-g294305-d7726303-Reviews-Iglesia_Santa_Ana-Santiago_Santiago_Metropolitan_Region.html","desde $27.437 ,desde $18.051 ,desde $10.108 ,desde $16.606 ","Catedral, 1515, Santiago","-33.43805674288765","-70.65843097299789","9","6","3","NA","NA","1","NA","NA","NA","1","Atracciones y lugares de interés, Iglesias y catedrales","2019-10-12"
"Pergola de las Flores Santa Maria","4,0","4 opiniones","https://www.tripadvisor.cl/Attraction_Review-g294305-d14134507-Reviews-Pergola_de_las_Flores_Santa_Maria-Santiago_Santiago_Metropolitan_Region.html","desde $83.032 ,desde $54.152 ","Av, La Paz, 51, Santiago","-33.43153198123298","-70.65159356948372","1","3","1","NA","NA","NA","NA","NA","NA","NA","Compras, Mercados de las pulgas y al aire libre","2019-10-12"
"Iglesia y Convento de La Recoleta Franciscana","4,0","13 opiniones","https://www.tripadvisor.cl/Attraction_Review-g294305-d4759286-Reviews-Iglesia_y_Convento_de_La_Recoleta_Franciscana-Santiago_Santiago_Metropolitan_Regi.html","desde $27.437 ,desde $18.051 ,desde $10.108 ,desde $16.606 ","Av. Recoleta con calle Antonia Lopez de Bellos, Santiago","-33.4315518221645","-70.6328649664935","6","6","3","NA","NA","NA","NA","NA","NA","NA","Atracciones y lugares de interés, Iglesias y catedrales","2019-10-12"
"Iglesia La Inmaculada Concepción","4,0","13 opiniones","https://www.tripadvisor.cl/Attraction_Review-g294305-d7391631-Reviews-Iglesia_La_Inmaculada_Concepcion-Santiago_Santiago_Metropolitan_Region.html","desde $27.437 ,desde $18.051 ,desde $10.108 ,desde $16.606 ","Av. Vitacura, 3729, Santiago","-33.402085144613","-70.59412942088417","8","5","NA","NA","NA","NA","NA","NA","NA","NA","Atracciones y lugares de interés, Iglesias y catedrales","2019-10-12"
"Casa de Las Gargolas","3,5","11 opiniones","https://www.tripadvisor.cl/Attraction_Review-g294305-d7658433-Reviews-Casa_de_Las_Gargolas-Santiago_Santiago_Metropolitan_Region.html","desde $27.437 ,desde $18.051 ,desde $10.108 ,desde $16.606 ","Vicuña Mackenna 84, Santiago","-33.5427091223505","-70.66471930439153","7","4","NA","NA","NA","NA","NA","NA","NA","NA","Atracciones y lugares de interés, Monumentos y lugares de interés, Lugares históricos","2019-10-12"
"Puente Peatonal Condell","3,5","23 opiniones","https://www.tripadvisor.cl/Attraction_Review-g294305-d8118941-Reviews-Puente_Peatonal_Condell-Santiago_Santiago_Metropolitan_Region.html","desde $27.437 ,desde $18.051 ,desde $10.108 ,desde $16.606 ","Av. Andres Bello y Av. Santa Maria, Santiago","14.561480000000074","121.4532200000001","14","8","4","NA","1","NA","NA","NA","NA","NA","Atracciones y lugares de interés, Puentes","2019-10-12"
"Monumento Al General San Martín y a Los Ejércitos de la Independencia","4,0","21 opiniones","https://www.tripadvisor.cl/Attraction_Review-g294305-d9803742-Reviews-Monumento_Al_General_San_Martin_y_a_Los_Ejercitos_de_la_Independencia-Santiago_Sa.html","desde $27.437 ,desde $18.051 ,desde $10.108 ,desde $16.606 ","Av Libertador Bernardo O'Higgins, Santiago","-33.44281857203282","-70.64651724787605","11","7","6","NA","NA","NA","NA","NA","NA","2","Atracciones y lugares de interés, Monumentos y estatuas","2019-10-12"
"Los Cobres de Vitacura","3,5","23 opiniones","https://www.tripadvisor.cl/Attraction_Review-g294305-d7726304-Reviews-Los_Cobres_de_Vitacura-Santiago_Santiago_Metropolitan_Region.html","desde $56.318 ,desde $158.123 ,desde $288.809 ,desde $22.144 ","Avenida Vitacura, 6780, Santiago","-33.38810939327147","-70.56702616501232","22","NA","1","NA","1","NA","NA","NA","NA","NA","Compras, Centros comerciales","2019-10-12"
"Parque Peñalolén","4,5","10 opiniones","https://www.tripadvisor.cl/Attraction_Review-g294305-d9461271-Reviews-Parque_Penalolen-Santiago_Santiago_Metropolitan_Region.html","desde $21.588 ,desde $78.700 ,desde $90.325 ,desde $51.986 ","NA","-22.138976121999974","17.22149898400005","9","NA","1","NA","NA","NA","NA","NA","NA","NA","Naturaleza y parques, Parques","2019-10-12"
"Museo del Presidente Pinochet","3,5","17 opiniones","https://www.tripadvisor.cl/Attraction_Review-g294305-d4943259-Reviews-Museo_del_Presidente_Pinochet-Santiago_Santiago_Metropolitan_Region.html","desde $10.108 ,desde $10.108 ,desde $140.794 ,desde $15.884 ","O'Brien 2244 (Vitacura), Santiago","-33.40006248162333","-70.59385094594502","11","5","1","NA","1","NA","NA","NA","NA","NA","Museos, Museos especializados","2019-10-12"
"Calle Dieciocho","3,5","38 opiniones","https://www.tripadvisor.cl/Attraction_Review-g294305-d638060-Reviews-Calle_Dieciocho-Santiago_Santiago_Metropolitan_Region.html","desde $27.437 ,desde $18.051 ,desde $10.108 ,desde $16.606 ","Calle Dieciocho, Santiago","-33.451157315311946","-70.65733440131274","33","3","4","NA","NA","NA","NA","NA","NA","NA","Atracciones y lugares de interés, Otros, Monumentos y lugares de interés, barrios Más","2019-10-12"
"Iglesia de las Agustinas","4,0","39 opiniones","https://www.tripadvisor.cl/Attraction_Review-g294305-d4456176-Reviews-Iglesia_de_las_Agustinas-Santiago_Santiago_Metropolitan_Region.html","desde $27.437 ,desde $18.051 ,desde $10.108 ,desde $16.606 ","Moneda 1054, Santiago","-33.442121296754046","-70.65200177184587","21","15","NA","NA","NA","1","NA","NA","NA","1","Atracciones y lugares de interés, Iglesias y catedrales, Monumentos y lugares de interés","2019-10-12"
"Viña Miraflores del Maipo","4,5","6 opiniones","https://www.tripadvisor.cl/Attraction_Review-g294305-d10794324-Reviews-Vina_Miraflores_del_Maipo-Santiago_Santiago_Metropolitan_Region.html","desde $39.639 ,desde $71.480 ,desde $90.325 ,desde $34.433 ","Av. Jaime Guzman 4500, Santiago","-33.40219788661966","-70.70131647140055","6","NA","NA","NA","NA","NA","NA","NA","NA","NA","Comida y bebida, Bodegas y viñedos","2019-10-12"
"San Ginés Teatro","4,0","23 opiniones","https://www.tripadvisor.cl/Attraction_Review-g294305-d7733636-Reviews-San_Gines_Teatro-Santiago_Santiago_Metropolitan_Region.html","desde $55.841 ,desde $84.477 ,desde $108.303 ,desde $94.513 ","Mallinkrodt 112, Santiago","-33.4326304432454","-70.6334789639332","23","NA","1","NA","NA","NA","NA","NA","NA","NA","Conciertos y espectáculos, Teatros","2019-10-12"
"Persa Victor Manuel","5,0","4 opiniones","https://www.tripadvisor.cl/Attraction_Review-g294305-d14958163-Reviews-Persa_Victor_Manuel-Santiago_Santiago_Metropolitan_Region.html","desde $10.108 ,desde $56.318 ,desde $158.123 ,desde $10.108 ","Victor Manuel 2220, Santiago","-33.473959635448466","-70.64058526732134","4","NA","NA","NA","NA","NA","NA","NA","NA","NA","Museos, Compras, Mercados de las pulgas y al aire libre, Galerías de arte Más","2019-10-12"
"Cerro Minillas","4,5","5 opiniones","https://www.tripadvisor.cl/Attraction_Review-g294305-d10486244-Reviews-Cerro_Minillas-Santiago_Santiago_Metropolitan_Region.html","desde $21.588 ,desde $78.700 ,desde $90.325 ,desde $51.986 ","NA","-22.138976121999974","17.22149898400005","5","NA","NA","NA","NA","NA","NA","NA","NA","NA","Actividades al aire libre, Naturaleza y parques, Rutas para senderismo","2019-10-12"
"High Mountain Experience","5,0","14 opiniones","https://www.tripadvisor.cl/Attraction_Review-g294305-d2638938-Reviews-High_Mountain_Experience-Santiago_Santiago_Metropolitan_Region.html","desde $21.588 ,desde $78.700 ,desde $90.325 ,desde $51.986 ","Av. Salvador 838 Providencia, Santiago","-33.441140231750246","-70.62424878988982","8","4","7","1","NA","NA","NA","NA","NA","NA","Naturaleza y parques, Actividades al aire libre, Rutas para senderismo","2019-10-12"
"SubCentro Las Condes","4,0","72 opiniones","https://www.tripadvisor.cl/Attraction_Review-g294305-d2290062-Reviews-SubCentro_Las_Condes-Santiago_Santiago_Metropolitan_Region.html","desde $56.318 ,desde $158.123 ,desde $288.809 ,desde $22.144 ","Apoquindo 4400, Santiago","-33.39999999999998","-70.53332999999998","54","15","4","2","1","NA","NA","NA","NA","NA","Compras, Centros comerciales","2019-10-12"
"Teatro Mori Bellavista","4,5","20 opiniones","https://www.tripadvisor.cl/Attraction_Review-g294305-d7729266-Reviews-Teatro_Mori_Bellavista-Santiago_Santiago_Metropolitan_Region.html","desde $55.841 ,desde $84.477 ,desde $108.303 ,desde $94.513 ","Constitución 183, Santiago","-33.43235447100233","-70.63484255508115","19","1","NA","NA","NA","NA","NA","NA","NA","NA","Conciertos y espectáculos, Teatros","2019-10-12"
"Museo de la Educacion Gabriela Mistral","4,0","25 opiniones","https://www.tripadvisor.cl/Attraction_Review-g294305-d6597665-Reviews-Museo_de_la_Educacion_Gabriela_Mistral-Santiago_Santiago_Metropolitan_Region.html","desde $10.108 ,desde $10.108 ,desde $140.794 ,desde $15.884 ","Chacabuco 365, Santiago","-33.20174467664934","-70.67775801626","12","13","3","NA","NA","NA","NA","NA","NA","NA","Museos, Museos especializados","2019-10-12"
"Plaza de Armas de Maipu","3,5","27 opiniones","https://www.tripadvisor.cl/Attraction_Review-g294305-d7382061-Reviews-Plaza_de_Armas_de_Maipu-Santiago_Santiago_Metropolitan_Region.html","desde $27.437 ,desde $18.051 ,desde $10.108 ,desde $16.606 ","Pajaritos Avenue, Santiago","-33.473157553229825","-70.73797922561552","22","3","5","NA","NA","NA","NA","NA","NA","NA","Atracciones y lugares de interés, Monumentos y lugares de interés","2019-10-12"
